UnitID,University,City,State,Denomination,Market_Saturation_Percentile,Academic_Efficiency_Percentile,aCFI_Percentile,Survivability,Quantile_Group,Rank,Endowment,Instructional_Costs,lat,lon
232557,Liberty University,Lynchburg,VA,Protestant,0.9986501019683699,0.9506324019128685,0.8208165481662044,0.9178823754956486,8,1,2889536146.25,508900530.873,37.35394665,-79.1531533219339
183026,Southern New Hampshire University,Manchester,NH,Not applicable,0.9986501019683699,0.9034220118140931,0.8097958008353758,0.9040345154331058,8,2,81544270.668,270207106.014,43.0374605,-71.44783921922284
130253,Sacred Heart University,Fairfield,CT,Roman Catholic               ,0.9986501019683699,0.7171262079979278,0.8102849067330768,0.8669897244305143,8,3,359938976.441,135900787.029,41.22259744999999,-73.24446729633347
140951,Savannah College of Art and Design,Savannah,GA,Roman Catholic,0.9986501019683699,0.687695778897506,0.8186772151478191,0.8644651834809197,8,4,450294890.895,140666980.664,32.07776915,-81.10099365718662
166027,Harvard University,Cambridge,MA,Not applicable,0.919090801612811,0.6433241402931644,0.9111516272485712,0.8607877884344448,8,5,1576052002.779,1271167930.417,42.36574324999999,-71.12221394207614
190415,Cornell University,Ithaca,NY,Not applicable,0.9986501019683699,0.6588476969931373,0.8132982626000598,0.856545795098623,8,6,10458861072.035,954636372.63,42.4529076,-76.48008423030923
133553,Embry-Riddle Aeronautical University-Daytona Beach,Daytona Beach,FL,Not applicable,0.9986501019683699,0.643235211216766,0.8168217371861296,0.8548349537212716,8,7,433488723.024,121106531.586,29.19175315,-81.04958387456502
137847,The University of Tampa,Tampa,FL,Not applicable,0.9986501019683699,0.6504872602301782,0.8105302476173843,0.8537667841936409,8,8,71056543.988,105620743.784,27.947357,-82.467766
228246,Southern Methodist University,Dallas,TX,Methodist,0.9986501019683699,0.6335774529530773,0.8158624184539804,0.8525204484877543,8,9,2457485744.064,167296895.328,32.84180114999999,-96.78152810147064
223232,Baylor University,Waco,TX,Baptist,0.9986501019683699,0.6347821953415568,0.8146306681275013,0.8522683300105544,8,10,2319964085.559,408636757.509,31.55043405,-97.1102905567766
152080,University of Notre Dame,Notre Dame,IN,Roman Catholic               ,0.9986501019683699,0.60438926686293,0.8247806282917516,0.8502547976654098,8,11,24010302260.643,456292336.991,41.70456775,-86.23822026017265
228875,Texas Christian University,Fort Worth,TX,Protestant,0.9986501019683699,0.6274055970892625,0.8112243482863755,0.8494305388195021,8,12,3065408991.313,266925707.792,32.7080148,-97.36119385339882
196413,Syracuse University,Syracuse,NY,Methodist,0.9986501019683699,0.6106326347102713,0.8106898871977624,0.8458637323122788,8,13,2282785566.015,484328217.283,43.01711285,-76.11855360009726
164988,Boston University,Boston,MA,Not applicable,0.9986501019683699,0.5957088591728892,0.8134080274183273,0.8439682692986261,8,14,4150309241.615,1289278205.374,42.3504215,-71.10322831831216
136215,Nova Southeastern University,Fort Lauderdale,FL,Not applicable,0.9986501019683699,0.5792838770508324,0.807641841645914,0.8383772878263072,8,15,272852556.471,366431809.83,26.08757885,-80.14968855039686
135726,University of Miami,Coral Gables,FL,Not applicable,0.9986501019683699,0.5699201732405634,0.8104348480659012,0.8376232446039134,8,16,1723415781.048,709279404.056,25.71727245,-80.2787068732586
146719,Loyola University Chicago,Chicago,IL,Roman Catholic               ,0.9986501019683699,0.5159266599973246,0.8357428720380479,0.8369582125002429,8,17,1120455031.69,207050433.089,41.99914920000001,-87.65737041681818
144740,DePaul University,Chicago,IL,Roman Catholic               ,0.9986501019683699,0.5662210471923685,0.808907108874239,0.8362723880823759,8,18,1231972454.115,244842557.236,41.9245803,-87.65072230067958
195003,Rochester Institute of Technology,Rochester,NY,Not applicable,0.9986501019683699,0.5510152285137313,0.809067899342208,0.8332970932737978,8,19,1660114774.307,288798019.993,43.0826701,-77.67293215211362
186131,Princeton University,Princeton,NJ,Interdenominational,0.9381479566606512,0.5799704618905428,0.8487542140541718,0.8307728996649935,8,20,45087052885.495,613207189.107,40.33867515,-74.65836549131683
193900,New York University,New York,NY,Not applicable,0.9986501019683699,0.5037178594369904,0.8072374252244351,0.8231097934534244,8,21,6034706438.394,2255051208.807,40.7292053,-73.99501481290962
130794,Yale University,New Haven,CT,Interdenominational,0.9848657267838433,0.5375765995619605,0.6722014469254292,0.7703243854528515,8,22,50681474134.498,1782750524.205,41.3135727,-72.9231731
138947,Clark Atlanta University,Atlanta,GA,Methodist,0.9888722646547018,0.4458832220479921,0.6782693297706209,0.7560254604970114,8,23,114792226.859,48019618.276,33.75012475,-84.41158897451389
227757,Rice University,Houston,TX,Not applicable,0.981737809122509,0.6202649749358573,0.5858760248270234,0.7510555034935439,8,24,9613198327.988,400718886.387,29.71679145,-95.40478113393792
147767,Northwestern University,Evanston,IL,Not applicable,0.991703769682534,0.624236873630273,0.5388244207504386,0.7370048217190625,8,25,12880933215.568,1106807415.452,42.0557157,-87.67529454739416
243744,Stanford University,Stanford,CA,Interdenominational,0.9841754580392027,0.5110797002510118,0.5986526126481964,0.7353173733318625,8,26,43678472171.516,2779346727.444,37.43131385,-122.1693653549831
139658,Emory University,Atlanta,GA,Methodist,0.9970239476879377,0.6767488989343298,0.5000216336109102,0.734100639348465,8,27,10491058820.98,862211574.756,33.7969409,-84.32371468406527
221999,Vanderbilt University,Nashville,TN,Not applicable,0.9371524741623315,0.608620960190214,0.5845739927513428,0.7303771162586274,8,28,11974481534.48,453264033.662,36.14380105,-86.80281889095295
217156,Brown University,Providence,RI,Not applicable,0.9382388781558925,0.6027996221677089,0.5799385206656693,0.7277927678162672,8,29,7887522073.543,393591915.185,41.8186395,-71.4088008716793
164924,Boston College,Chestnut Hill,MA,Roman Catholic               ,0.9875993394206649,0.6154495720157207,0.5237068116063784,0.727556811285139,8,30,4276658569.222,378863767.025,42.3401702,-71.167045
198419,Duke University,Durham,NC,Methodist,0.9920719135561643,0.5399230063488268,0.5384472834708549,0.7201467700452766,8,31,14751189917.749,1147405261.092,36.00015569999999,-78.94422972195878
198695,High Point University,High Point,NC,Methodist,0.9884792832362865,0.629333312885997,0.4973424014534821,0.7201330236737853,8,32,202020476.542,75212028.054,35.9720859,-79.9936582
217633,Anderson University,Anderson,SC,Baptist,0.836548072371482,0.5285949830659764,0.696208993576272,0.7188245504854683,8,33,30777700.896,38895667.508,34.51478935,-82.63874687710373
122931,Santa Clara University,Santa Clara,CA,Roman Catholic               ,0.9771572671526583,0.581777131927508,0.5274785977479335,0.7181593746253798,8,34,1667141461.573,203013711.368,37.3486243,-121.9365440053793
129242,Fairfield University,Fairfield,CT,Roman Catholic               ,0.9917237925632323,0.6392398347514034,0.4801007353924008,0.716510701916881,8,35,506631457.061,103130699.191,41.15967565,-73.25740310197213
162928,Johns Hopkins University,Baltimore,MD,Not applicable,0.9910436180318937,0.59840821902855,0.4979045466768091,0.7152015454148204,8,36,15731249065.999,2907068262.75,39.33020225,-76.62185357858337
167358,Northeastern University,Boston,MA,Not applicable,0.9972219572830536,0.6443204970820904,0.4673891083041328,0.714637849227517,8,37,2526420354.964,634719111.409,42.33510525,-71.08925787470238
195809,St. John's University-New York,Queens,NY,Roman Catholic               ,0.9815979860314136,0.6647659604486552,0.4690898843463882,0.713157521823073,8,38,972760736.921,144474526.165,40.7255421,-73.7919066
129941,University of New Haven,West Haven,CT,Not applicable,0.9294530431678455,0.8053987670393306,0.4442691769441067,0.7104840101070151,8,39,108510528.886,92733833.066,41.29091365,-72.96263883692575
174914,University of St Thomas,Saint Paul,MN,Roman Catholic               ,0.9722907675553493,0.61517401613953,0.490800780699907,0.708210836207779,8,40,823063088.907,129407895.771,44.94210585,-93.1894521972007
198516,Elon University,Elon,NC,Not applicable,0.9918734096828838,0.5898832995758756,0.4820211521779896,0.7074727132190342,8,41,388516877.838,110205798.306,36.1063398,-79.50273682932499
141060,Spelman College,Atlanta,GA,Not applicable,0.8973745987559348,0.560642100934297,0.5856734199876515,0.7053189606983225,8,42,603817315.816,40335576.123,33.74508885,-84.41138326759426
212054,Drexel University,Philadelphia,PA,Not applicable,0.9826178108408482,0.6533173336123526,0.4488702843538266,0.7031848853427658,8,43,1069472319.374,378037596.956,39.9569305,-75.18992654517834
191241,Fordham University,Bronx,NY,Roman Catholic               ,0.9893809922439329,0.6126016493638113,0.4620946058564467,0.7030427897699245,8,44,1119385853.526,405053673.572,40.86173435000001,-73.88603169298054
168148,Tufts University,Medford,MA,Not applicable,0.9422675696043428,0.6483977728629441,0.491225966436215,0.7030161476478524,8,45,3201484980.039,397927229.477,42.40649125,-71.11800725402092
111948,Chapman University,Orange,CA,Protestant,0.9859740274831936,0.6041651856649992,0.4679662097174997,0.7023437113339057,8,46,852307981.373,238197917.523,33.79338165,-117.851695945987
130226,Quinnipiac University,Hamden,CT,Not applicable,0.9493688362103003,0.6078694594337428,0.498558944696913,0.7006889922090088,8,47,919249210.086,127185667.236,41.41819485000001,-72.8931049147314
163046,Loyola University Maryland,Baltimore,MD,Roman Catholic               ,0.9750622654813886,0.5935127373224933,0.4718267819561507,0.6973956742956251,8,48,364000678.801,56864681.021,39.34835375,-76.61593184876489
139144,Berry College,Mount Berry,GA,Interdenominational,0.8052138525770922,0.5237775681885899,0.6681925677888934,0.6941188211555934,8,49,402275173.523,49838581.319,34.293036,-85.19174086702785
102377,Tuskegee University,Tuskegee,AL,Not applicable,0.9625496726464947,0.5663321063454178,0.4890948653197239,0.6938691672507358,8,50,171767411.222,106665117.861,32.4301095,-85.70673351537872
140447,Mercer University,Macon,GA,Baptist,0.9492543015809671,0.6232881825655052,0.4725371982842206,0.6933114896504183,8,51,596820645.75,142309049.557,32.8289341,-83.65067020582131
219709,Belmont University,Nashville,TN,Interdenominational,0.971659860422345,0.5176164633319925,0.5021700684523276,0.6930067705975826,8,52,497223117.777,109563994.571,36.13278325,-86.79265777214094
224226,Dallas Baptist University,Dallas,TX,Baptist,0.8261009007041786,0.857745883887851,0.4753731209769926,0.6920654753957749,8,53,82425316.968,25408635.915,32.7108312,-96.946767972549
236595,Seattle University,Seattle,WA,Roman Catholic               ,0.8797577198865177,0.5228424250502639,0.5888578744901369,0.6919922343211189,8,54,359465085.961,121257770.378,47.60950425,-122.3187982970228
235316,Gonzaga University,Spokane,WA,Roman Catholic               ,0.9493522899107403,0.618033054895834,0.4694019138993981,0.6910454343515214,8,55,483910083.525,112198912.301,47.66710255,-117.4030545594068
179867,Washington University in St Louis,Saint Louis,MO,Not applicable,0.935389146794809,0.5647343400115368,0.5044653119093708,0.6888395321976805,8,56,14013231693.517,3207263784.615,38.64724015,-90.3084017158684
186867,Stevens Institute of Technology,Hoboken,NJ,Not applicable,0.8423764248916773,0.8275267087801763,0.4632766202808694,0.6876922248357429,8,57,408436918.291,142604454.915,40.7448096,-74.0252392276461
211440,Carnegie Mellon University,Pittsburgh,PA,Not applicable,0.896315818263923,0.627174219819014,0.5064428985787968,0.6864872702767981,8,58,3599248323.453,543703169.553,40.4441897,-79.94271918393466
199847,Wake Forest University,Winston-Salem,NC,Protestant,0.968581232675241,0.4950600538492897,0.4980892656852262,0.6856334638385294,8,59,1328272564.692,421771899.604,36.13389295,-80.27555779127688
127060,University of Denver,Denver,CO,Methodist,0.9585206730531557,0.5495454935881973,0.4805909280710182,0.685499050736259,8,60,1330532838.483,253301531.875,39.6783106,-104.9624727630881
227863,University of St Thomas,Houston,TX,Roman Catholic               ,0.9395883107484005,0.6275545068880162,0.4550107082812603,0.6832847968493602,8,61,173653696.596,64119007.116,29.7368408,-95.39417194809748
166683,Massachusetts Institute of Technology,Cambridge,MA,Not applicable,0.7516811839004682,0.5681360922508432,0.6722204674888784,0.6831903413717899,8,62,32355542457.569,1039191981.961,42.3582529,-71.0966272383055
186584,Seton Hall University,South Orange,NJ,Roman Catholic               ,0.9608916856563097,0.5757031246187809,0.4527750378612367,0.6805442098573194,8,63,383270423.496,124306577.529,40.75201795,-74.23952913701487
102049,Samford University,Birmingham,AL,Baptist,0.9191025703090075,0.6016125806960717,0.4756167718043312,0.6781533048238102,8,64,490041746.4,95539663.257,33.553754,-86.751096
150163,Butler University,Indianapolis,IN,Not applicable,0.9275685843833082,0.5855007225106157,0.4729993966093055,0.6772706298478011,8,65,310796684.426,80213634.875,39.8407191,-86.17374943464814
194310,Pace University,New York,NY,Not applicable,0.9369252922341846,0.5974869966732659,0.4467245123691669,0.6728932248495769,8,66,289332378.422,137599072.876,40.7111164,-74.00480443918846
216597,Villanova University,Villanova,PA,Roman Catholic               ,0.8686742397249158,0.5980686920684012,0.5144577665395464,0.6728227581795936,8,67,1518575983.857,182962387.04,40.03575,-75.3401787
144050,University of Chicago,Chicago,IL,Interdenominational,0.9259762033704309,0.551886735574338,0.4750372390747563,0.6707299452468629,8,68,10776747231.612,1421906696.081,41.79139685,-87.60084387193544
229267,Trinity University,San Antonio,TX,Presbyterian,0.7978631630892121,0.4989024900728102,0.6210059170291329,0.6673226546799896,8,69,1530069004.612,56870221.068,29.4616913,-98.48350834832186
202480,University of Dayton,Dayton,OH,Roman Catholic               ,0.8800257821858618,0.626059716998503,0.4749024480690859,0.6671276074413751,8,70,1005326808.243,164837334.222,39.73845985,-84.17919478013708
225627,University of the Incarnate Word,San Antonio,TX,Roman Catholic               ,0.9673836113619129,0.471128349506034,0.4640267372990202,0.666738763516953,8,71,208463940.625,77263218.287,29.4688466,-98.46910390973764
194824,Rensselaer Polytechnic Institute,Troy,NY,Not applicable,0.8660373674612483,0.6550693975989373,0.4730368080215428,0.6665860463980021,8,72,1069422942.619,131666811.989,42.7298969,-73.67966781998861
201645,Case Western Reserve University,Cleveland,OH,Not applicable,0.8967746793418907,0.5558148737545079,0.4902984740054658,0.6659450368293356,8,73,2328022340.607,394768452.862,41.50138695,-81.60070216600491
160755,Tulane University of Louisiana,New Orleans,LA,Not applicable,0.9254703683325878,0.5331151617422156,0.4718998485678444,0.6655196405253221,8,74,2472102985.898,575212314.215,29.95794375,-90.07785846248962
164748,Berklee College of Music,Boston,MA,Not applicable,0.9224169575553592,0.5780483625861106,0.45170122601428,0.6651972396582665,8,75,430083153.558,168155966.491,42.3483475,-71.08487040303883
133881,Florida Institute of Technology,Melbourne,FL,Not applicable,0.8212397468060497,0.7056447187543711,0.4767352383896736,0.6602615964302854,8,76,113778143.62,80557440.947,28.064271,-80.6230040282868
150534,University of Evansville,Evansville,IN,Methodist,0.7147841520055426,0.4439569886140419,0.71051110824958,0.6589357299324454,8,77,173163950.365,21174388.38,37.9735131,-87.53229765717168
190150,Columbia University in the City of New York,New York,NY,Not applicable,0.8463117714639232,0.5856359766255075,0.5076704934566703,0.6586784406172213,8,78,16951370243.68,3776662320.631,40.80775585,-73.96161411567529
222178,Abilene Christian University,Abilene,TX,Churches of Christ,0.8966148250055407,0.4481860826266741,0.5178785108692616,0.6554036464866664,8,79,966154256.423,58106130.208,32.4699728,-99.70735954838815
191649,Hofstra University,Hempstead,NY,Not applicable,0.8823899692351168,0.5601117417293251,0.4753133861391115,0.6550545030016878,8,80,1052604456.551,168650641.021,40.71690825,-73.60002245039347
225399,Houston Christian University,Houston,TX,Baptist,0.8704053162713552,0.594343823232395,0.470176327931983,0.6550489826794503,8,81,144351765.743,18405851.845,32.646035,-96.805742
164173,Stevenson University,Owings Mills,MD,Not applicable,0.8688734168593666,0.6041765343929836,0.4659212126098614,0.6546990379136846,8,82,141828815.066,17638104.152,39.4272656,-76.77650761968783
168421,Worcester Polytechnic Institute,Worcester,MA,Not applicable,0.8581856717651324,0.635546440294541,0.4608801958674865,0.6546784379399233,8,83,661633876.064,165027100.233,42.274315,-71.80845674552586
233374,University of Richmond,University of Richmond,VA,Not applicable,0.7486377661995923,0.5184118834027074,0.6203105735673097,0.6512590697370555,8,84,3493398999.977,104740416.541,37.577415,-77.539478
132657,Lynn University,Boca Raton,FL,Interdenominational,0.8037087721534675,0.749928778787489,0.449134696469695,0.6510576063909626,8,85,41181258.704,2843579.425,26.3837711,-80.12540276819502
137032,Saint Leo University,Saint Leo,FL,Roman Catholic               ,0.7981321848227626,0.7528281018160139,0.4502539324045016,0.6498550220119255,8,86,93128067.766,43970036.87,28.3385394,-82.25807054363955
144281,Columbia College Chicago,Chicago,IL,Not applicable,0.9525653731261542,0.448265327066693,0.4332406849320477,0.6439220537035865,8,87,188906272.005,47704226.231,41.8742404,-87.6247913
129525,University of Hartford,West Hartford,CT,Interdenominational,0.9420661607864839,0.4443677627158408,0.4448795333186692,0.6436021626995428,8,88,213098795.409,87392813.142,41.8002648,-72.71412054842195
217402,Providence College,Providence,RI,Roman Catholic               ,0.8319080588255268,0.6015795693853241,0.4755854979088595,0.6432651049075799,8,89,403791679.631,76334755.839,41.8442938,-71.43548862523096
110361,California Baptist University,Riverside,CA,Baptist,0.8250477591320591,0.6545031781140583,0.4447058529938329,0.6387430665500426,8,90,200790654.859,144609517.498,33.9283239,-117.4259206205848
170301,Hope College,Holland,MI,Protestant,0.7939962138409742,0.5675779020054954,0.5153332737076928,0.6372142846637228,8,91,361717192.752,34555660.233,42.78672450000001,-86.09964267156195
130697,Wesleyan University,Middletown,CT,Not applicable,0.7645749219944786,0.541424125018962,0.5504694654479976,0.6342820739691711,8,92,2067888723.01,113008893.527,41.5559033,-72.65598837890627
164739,Bentley University,Waltham,MA,Not applicable,0.7784395349547663,0.637877777066586,0.4835527020202068,0.6323275290125083,8,93,404462823.158,76801805.262,42.3834189,-71.2225864285891
179159,Saint Louis University,Saint Louis,MO,Roman Catholic               ,0.9299895726994187,0.305544549113163,0.4949182742200497,0.6310474788330828,8,94,1940293988.733,237066344.449,38.635359,-90.23184326838911
226471,University of Mary Hardin-Baylor,Belton,TX,Baptist,0.8834372431720775,0.4556629097534898,0.4654811482333926,0.6306591247272402,8,95,144510282.54,39062435.557,31.06868225,-97.46482937242428
174844,St Olaf College,Northfield,MN,Lutheran,0.7685658184989544,0.5749880373840647,0.5162305452452626,0.6288850436979605,8,96,886344578.208,52269363.427,44.4640025,-93.18717908824593
231651,Regent University,Virginia Beach,VA,Interdenominational,0.6418317105858005,0.9145234238889965,0.4683588929789606,0.626918962468852,8,97,52200584.009,27379954.397,36.79932065,-76.19440046772189
195030,University of Rochester,Rochester,NY,Not applicable,0.8629057922601768,0.5040632410860454,0.4500097001957871,0.6259321502362991,8,98,3421576727.583,388455930.835,43.129864,-77.62878399245412
192819,Marist College,Poughkeepsie,NY,Roman Catholic,0.7587999969384177,0.6499263399421107,0.4799054855119388,0.6254225694319792,8,99,551067513.227,73883808.515,41.722007,-73.93438356318902
198385,Davidson College,Davidson,NC,Presbyterian,0.6027696427001028,0.5708304815423484,0.6638559786441172,0.6208317560294622,8,100,1756852179.593,48959609.705,35.5032193,-80.83393027613258
232609,University of Lynchburg,Lynchburg,VA,Protestant,0.5002011785571039,0.4610621083007662,0.8180874377832243,0.6195953593551554,8,101,163091063.495,34608965.47,37.39874285,-79.18404787841646
181002,Creighton University,Omaha,NE,Roman Catholic               ,0.779928272201601,0.5218314997334523,0.5079560818548592,0.619491456808452,8,102,894600886.318,164909733.349,41.26585655,-95.94505553516464
229160,Texas Wesleyan University,Fort Worth,TX,Methodist,0.7694706349276214,0.4152310580555723,0.5703350893840734,0.6189640981843708,8,103,69181216.393,10752639.433,32.73306755,-97.28013399216506
166850,Merrimack College,North Andover,MA,Roman Catholic               ,0.7648026156422487,0.6669995976308619,0.4449040041297032,0.6172283680144518,8,104,87664960.928,61873383.628,42.66688065,-71.12292177692487
168342,Williams College,Williamstown,MA,Not applicable,0.4926867215386633,0.5434339409062179,0.7584386651145425,0.6091850185093043,8,105,4486955830.355,125310564.266,42.7130236,-73.2030082
165662,Emerson College,Boston,MA,Interdenominational,0.728241254252252,0.6079868515270488,0.4749349777514622,0.6028292272918677,8,106,279832730.644,65456757.754,42.3521996,-71.0656808
136330,Palm Beach Atlantic University,West Palm Beach,FL,Interdenominational,0.7528807678920277,0.518364570273932,0.4885556996620178,0.6002180876825204,7,107,118945105.491,29555399.966,26.7048899,-80.05085158341606
137564,Southeastern University,Lakeland,FL,Pentecostal,0.7110772912058301,0.7007770803360255,0.4369076253747945,0.5992955787873757,7,108,8537421.01,25353189.224,28.03048365,-81.91800905687728
168005,Suffolk University,Boston,MA,Not applicable,0.7549434482969565,0.5987941801038542,0.4439654700163637,0.5992758226772621,7,109,263605075.129,61196700.48,42.3567011,-71.06105776439689
201654,Cedarville University,Cedarville,OH,Baptist,0.7141225340887216,0.6082437679986923,0.47795220518217,0.5984420031189228,7,110,56920085.868,62250420.707,39.7540491,-83.81705182918216
134945,Jacksonville University,Jacksonville,FL,Interdenominational,0.7902609092116094,0.5298820902925003,0.4402973477521221,0.5981557660135927,7,111,73907909.018,32177749.135,30.3537227,-81.60730605405212
217165,Bryant University,Smithfield,RI,Not applicable,0.6730290224137303,0.682694890276002,0.4786433147593099,0.5971680691960993,7,112,253643851.285,27709516.364,41.92209145,-71.53715173504338
193654,The New School,New York,NY,Not applicable,0.7852659539679562,0.514025933675945,0.447352425396313,0.5958120797772115,7,113,515441814.265,155813592.613,40.73547915,-73.9970708835668
211291,Bucknell University,Lewisburg,PA,Anabaptist,0.6707193819866618,0.5560184058400081,0.5400556896381644,0.5954990471770771,7,114,1328672194.564,87280050.992,40.9588852,-76.88191282447514
204486,University of Northwestern Ohio,Lima,OH,Not applicable,0.5653351144754213,0.8252319760765651,0.5091387382508148,0.5947987073444024,7,115,0.0,8369544.56,40.7617103,-84.16055032215593
151786,Marian University,Indianapolis,IN,Roman Catholic               ,0.7576924198482047,0.5392286539412966,0.4579184980316008,0.5940519895324088,7,116,146419154.807,76400098.773,39.8118912,-86.20426576405468
136950,Rollins College,Winter Park,FL,Not applicable,0.7065645346097326,0.5586343128947822,0.4937889812062457,0.5918405068168385,7,117,533397975.916,37207936.714,28.5925001,-81.3489577
166124,College of the Holy Cross,Worcester,MA,Roman Catholic               ,0.6293976244142498,0.5685337050751399,0.5639204473795614,0.5910269606890795,7,118,1134139704.641,77665514.43,42.23668645,-71.80702483708313
155511,McPherson College,McPherson,KS,Anabaptist,0.3342950597387148,0.5275616327499755,0.8782094231218549,0.5906035759095984,7,119,2330285173.661,7433928.587,38.37222595,-97.64194995634703
239318,Milwaukee School of Engineering,Milwaukee,WI,Not applicable,0.7402009018718395,0.5091547475351745,0.4785166141858102,0.5892887236879912,7,120,94516722.212,46987374.54,43.04576595,-87.9079361465609
153384,Grinnell College,Grinnell,IA,Not applicable,0.4244727341570452,0.5094440828795384,0.7927488159825624,0.5888425947132435,7,121,3224894489.096,55425809.542,41.75111985,-92.71984863278584
156541,University of the Cumberlands,Williamsburg,KY,Baptist,0.5738457254796911,0.819703364340095,0.4832828015718752,0.5867493853399779,7,122,502981178.591,59608928.876,36.73674315,-84.16286166961402
185572,Monmouth University,West Long Branch,NJ,Not applicable,0.7409122688677716,0.4868120431715507,0.4805949355614667,0.5859386369619138,7,123,190129023.154,75196244.269,40.27941055,-74.00680219986127
204501,Oberlin College,Oberlin,OH,Protestant,0.5856634016652459,0.5267345333868683,0.6155747813540701,0.5858540550478656,7,124,1543578050.983,69282315.752,41.29571765,-82.22156959263393
140553,Morehouse College,Atlanta,GA,Baptist,0.8404072040414788,0.4556391306924663,0.3962208228687285,0.5857286764336765,7,125,292320362.64,34229851.889,33.74737405,-84.41609506200462
165015,Brandeis University,Waltham,MA,Not applicable,0.6786885382172227,0.5729263306332069,0.4970653160540932,0.5848610594114935,7,126,1436986849.546,131807869.847,42.36650945,-71.2580196483813
193016,Mercy University,Dobbs Ferry,NY,Roman Catholic,0.7219093077992248,0.4927462124688169,0.4889880068391151,0.5828845003984403,7,127,394310983.225,65753788.98,41.02156265,-73.87446425294797
134079,Florida Southern College,Lakeland,FL,Methodist,0.7071633237889409,0.5542914947628701,0.4690056880727445,0.5812935593530075,7,128,117004041.609,35698635.305,28.0304561,-81.94554251154706
137476,St. Thomas University,Miami Gardens,FL,Roman Catholic               ,0.6952374178832803,0.5737356636222632,0.4708473387221573,0.5811483075262216,7,129,47132083.104,26747056.389,25.92128605,-80.2564809131741
128902,Connecticut College,New London,CT,Not applicable,0.6851937721503417,0.531457433047891,0.5003379848077695,0.5804825918692643,7,130,508706675.169,25067369.754,41.37913335,-72.10653061495535
173258,Carleton College,Northfield,MN,Not applicable,0.5836759770572685,0.5285430842736349,0.6032041370315903,0.5804700814115437,7,131,1435626560.522,76650705.648,44.4612233,-93.1557163
188429,Adelphi University,Garden City,NY,Not applicable,0.7731729354124044,0.4516853375374322,0.4516324789010252,0.5802270739013434,7,132,264599037.715,108676556.796,40.7197638,-73.65197185396391
207582,Oral Roberts University,Tulsa,OK,Protestant,0.6038584819832874,0.6963930699039798,0.4983806473787592,0.5801439166999016,7,133,54085352.459,26266248.313,36.0508252,-95.95213552843208
168218,Wellesley College,Wellesley,MA,Not applicable,0.4832565023215427,0.5334556615475421,0.6939365964687896,0.5776054879285482,7,134,3868170467.338,85181746.33,42.29177605,-71.3032751636105
184603,Fairleigh Dickinson University-Metropolitan Campus,Teaneck,NJ,Not applicable,0.6073894412287976,0.8040230054700951,0.433900158566953,0.5772660797993627,7,135,116018989.104,55650358.603,40.89807275,-74.0307211402726
148496,Dominican University,River Forest,IL,Roman Catholic               ,0.7639250876413655,0.437147378044822,0.4592702255092844,0.5766793476677575,7,136,61693176.368,37490830.706,41.90289665,-87.82262656814642
164465,Amherst College,Amherst,MA,Interdenominational,0.4526730895011841,0.5196671963430033,0.7274062222836477,0.5760134111984057,7,137,4254154753.154,81962020.911,42.3703768,-72.5160691823344
130989,Goldey-Beacom College,Wilmington,DE,Not applicable,0.2975237982520486,0.646974198377168,0.8146087156985937,0.5743163171991672,7,138,188527989.804,5374512.121,39.754933,-75.658317
165699,Endicott College,Beverly,MA,Not applicable,0.6844700596365817,0.5333930164118663,0.4836518658417981,0.5739023175392888,7,139,168494830.395,55469083.346,42.55406905,-70.8441366229226
234207,Washington and Lee University,Lexington,VA,Not applicable,0.5412419915106932,0.5622385094958575,0.6073476135129576,0.5718946653812338,7,140,1687001824.392,81089573.093,37.7869705,-79.4413852
217518,Roger Williams University,Bristol,RI,Not applicable,0.7079657871192703,0.5492776636367209,0.4462007694830251,0.5714856711770834,7,141,79243240.161,48154504.639,41.65046814999999,-71.26023298522472
190099,Colgate University,Hamilton,NY,Not applicable,0.5851589611831283,0.5682043588165842,0.5556510621019748,0.5699606749577785,7,142,1458814265.897,84945269.635,42.8154037,-75.53958155911818
156295,Berea College,Berea,KY,Interdenominational,0.3885866759958582,0.4073664814948512,0.8297978913077106,0.5689134874829103,7,143,1620002877.407,36100891.664,37.57153635,-84.28979604472684
121150,Pepperdine University,Malibu,CA,Churches of Christ,0.6188491611153428,0.6224203659770747,0.4917009174988278,0.5686783178718737,7,144,1352840941.697,195366347.898,34.04301030000001,-118.7093458932893
143118,Aurora University,Aurora,IL,Interdenominational,0.6287290010478059,0.6744965324813305,0.4557846440118708,0.5686655988955862,7,145,57093254.696,34024895.001,41.754829,-88.34950358637296
202523,Denison University,Granville,OH,Not applicable,0.5103657892731792,0.6076242591574771,0.6073747539898351,0.568630745082656,7,146,1358437901.167,42962592.978,40.07300505,-82.52248588003852
133711,Flagler College,Saint Augustine,FL,Not applicable,0.7113562707427064,0.4850877974482884,0.4669151797137996,0.5682998783013837,7,147,29884691.996,21924689.696,29.89194365,-81.32156855386452
218070,Furman University,Greenville,SC,Interdenominational,0.6077004668202797,0.4865094086588443,0.567932139681655,0.5675590897729311,7,148,930653722.2,61134465.223,34.92577435,-82.4385258125221
164580,Babson College,Wellesley,MA,Jewish,0.5459230070531953,0.7080771949403594,0.5179825327291998,0.5671558513873765,7,149,825599767.255,51300302.432,42.29914,-71.2622114
197708,Yeshiva University,New York,NY,Jewish,0.479857901969568,0.9605516368939327,0.4527477642515547,0.5650991024661995,7,150,514895874.992,151108680.03,40.84898065,-73.92984026052692
206622,Xavier University,Cincinnati,OH,Roman Catholic               ,0.6953884637970736,0.4962172808032492,0.4684440888412563,0.5647510054592899,7,151,284112567.508,88741265.403,39.1513078,-84.47083471474068
199412,Queens University of Charlotte,Charlotte,NC,Presbyterian,0.691048613762651,0.5648552776140732,0.4357791539974044,0.5636637280684986,7,152,188239940.226,16887376.546,35.223787,-80.841141
126678,Colorado College,Colorado Springs,CO,Not applicable,0.5850732564801348,0.5411332829483622,0.5529663949775161,0.5634404897977854,7,153,921061721.661,66767535.563,38.8480439,-104.8239509314005
191968,Ithaca College,Ithaca,NY,Not applicable,0.6062322723982768,0.6014973132358727,0.5007885754546841,0.5630871865448864,7,154,472591752.237,38286398.479,42.41970354999999,-76.49833484728887
228149,St. Mary's University,San Antonio,TX,Roman Catholic               ,0.6757470957205115,0.4510415429038582,0.5019968604927237,0.5612936115743018,7,155,288257066.318,42572949.658,29.45223455,-98.56460747256097
143358,Bradley University,Peoria,IL,Not applicable,0.6483262423886024,0.5897174779927994,0.4587508675803084,0.5607422853876021,7,156,424914234.362,52090813.586,40.6981131,-89.61551386208208
195474,Siena College,Loudonville,NY,Roman Catholic               ,0.6333169544979574,0.6054976531757198,0.465781996229929,0.5607083858647771,7,157,198707597.831,36700580.226,42.7192659,-73.7511920123242
199962,Wingate University,Wingate,NC,Baptist,0.6849059074039231,0.5135513276809527,0.458058163228862,0.5598676596984419,7,158,155392138.056,38479925.282,34.9871011,-80.43731492196923
121309,Point Loma Nazarene University,San Diego,CA,Protestant,0.6407973542255267,0.6108310131425883,0.4531943952446195,0.5597283784588882,7,159,75656679.618,38459049.087,32.7169659,-117.2510853
218973,Wofford College,Spartanburg,SC,Methodist,0.5855130354658227,0.558680822193591,0.5344808800958387,0.559726207453636,7,160,459136303.005,26231564.173,34.96115815,-81.93532160934096
169080,Calvin University,Grand Rapids,MI,Protestant,0.5911535656571072,0.5735572638613069,0.5212633246417813,0.5596659904737933,7,161,326610323.215,20866019.716,42.9320314,-85.58036402193719
143048,School of the Art Institute of Chicago,Chicago,IL,Not applicable,0.5690393909857693,0.4757200569387755,0.5883279371247161,0.5581041322745818,7,162,1663007082.791,64652484.84,41.8812522,-87.62697448192992
120883,University of the Pacific,Stockton,CA,Methodist,0.6561097081034348,0.5160772745597975,0.4801805485409571,0.5577103749811582,7,163,739230986.384,164515714.886,37.98042375,-121.3128471983267
237066,Whitworth University,Spokane,WA,Presbyterian,0.6702389268055429,0.4471401590100939,0.4969274999264049,0.5562822500862016,7,164,236565887.101,35115036.209,47.75418125,-117.4178864635003
154749,Bethel College-North Newton,North Newton,KS,Other,0.2877097503688343,0.4948392682027311,0.8541045119847024,0.5557861245825007,7,165,40064717.461,2401533.54,38.0761894,-97.34339387481224
228343,Southwestern University,Georgetown,TX,Methodist,0.5927801093946402,0.5438181208274593,0.5243140793738099,0.5555925026657245,7,166,476755918.22,24432204.748,30.6371513,-97.66274097607484
173045,Augsburg University,Minneapolis,MN,Lutheran,0.6952311340884727,0.4875335088456483,0.4488407520577059,0.5551069479137192,7,167,91344558.713,33214996.518,44.9662364,-93.24110466136236
213385,Lafayette College,Easton,PA,Presbyterian,0.5383507286874352,0.5689464842958444,0.5613621645605001,0.5536759968699568,7,168,1237348251.369,59054756.227,40.6986835,-75.20924604652205
110097,Biola University,La Mirada,CA,Interdenominational,0.5984900988095097,0.6502483740498146,0.4603047408474949,0.5535347977736482,7,169,117098515.092,43936924.421,33.90686,-118.0152171906512
173902,Macalester College,Saint Paul,MN,Presbyterian,0.5685302784852331,0.5337755963345063,0.5478433658783377,0.5533039150980232,7,170,903061958.461,51618449.751,44.9376942,-93.16929174410552
192448,Long Island University,Brookville,NY,Not applicable,0.6390877243803935,0.4778869409630627,0.5049688835074577,0.5531893276579202,7,171,554577611.264,64707504.734,40.820249,-73.59671333637571
237057,Whitman College,Walla Walla,WA,Not applicable,0.5184283218350625,0.5671304698677413,0.5803276489993329,0.552935991957936,7,172,929708256.441,26696714.941,46.0705665,-118.3303177501461
130590,Trinity College,Hartford,CT,Episcopal,0.6070874783109106,0.5191202821062162,0.5142189859076449,0.5523368651298053,7,173,978344156.189,61545559.92,41.74715485,-72.69011994734595
117140,University of La Verne,La Verne,CA,Not applicable,0.6941782363351758,0.4411707040890373,0.4656718321867185,0.5521537676989601,7,174,161218312.251,50734213.321,34.09986360000001,-117.7726224705835
194578,Pratt Institute-Main,Brooklyn,NY,Not applicable,0.6203732867844955,0.5438531354918552,0.4844869121638749,0.5506951814179244,7,175,324763136.206,93566939.898,40.703244,-73.990655
168227,Wentworth Institute of Technology,Boston,MA,Not applicable,0.64764956609982,0.533640158473044,0.4603753608698654,0.5499119485821997,7,176,188620289.709,57596864.314,42.33657245000001,-71.0953729508291
167835,Smith College,Northampton,MA,Interdenominational,0.5310567239652844,0.5570628199351744,0.5646218673825281,0.5496881129452463,7,177,-174348714.721,69657010.817,42.31622385,-72.64039315198599
161004,Bowdoin College,Brunswick,ME,Not applicable,0.4039145458954121,0.5577624303590389,0.6912975338106504,0.5496794097633695,7,178,3390107464.624,77804088.143,43.90869735,-69.96142281131719
205957,Franciscan University of Steubenville,Steubenville,OH,Roman Catholic               ,0.5565163400547221,0.6977457054483978,0.4666159304318629,0.5487699462658496,7,179,100437801.231,24797370.485,40.376755,-80.62193141522137
144962,Elmhurst University,Elmhurst,IL,United Church of Christ,0.5861543770601398,0.6168587612975598,0.4749473056382486,0.5477871134861592,7,180,186980905.545,26881787.915,41.89711725,-87.94692011451079
217688,Charleston Southern University,Charleston,SC,Baptist,0.69297682331403,0.4196113041899596,0.4639256505893875,0.5466647767167264,7,181,33920979.729,43774076.613,32.9826445,-80.07109661611514
150400,DePauw University,Greencastle,IN,Methodist,0.5551879980581058,0.4953231705910773,0.5636028928552712,0.5465886599452724,7,182,753498436.894,35778782.729,39.63804945,-86.86687365754466
136774,Ringling College of Art and Design,Sarasota,FL,Not applicable,0.5944528172626011,0.5863930989800179,0.4769876741488216,0.5458321293037781,7,183,74236996.344,31416583.624,27.36000665,-82.5464064763355
166939,Mount Holyoke College,South Hadley,MA,Not applicable,0.4991405764169589,0.539880382781293,0.594773049592034,0.5455565794738544,7,184,1267179695.82,53679139.003,42.25532845,-72.56966884397315
105899,Arizona Christian University,Glendale,AZ,Interdenominational,0.6146161454782091,0.6177445026917501,0.4378441067970227,0.5444973342049851,7,185,1208834.35,5506027.741,33.62261334999999,-112.1826058201733
236230,Pacific Lutheran University,Tacoma,WA,Lutheran,0.6173291896810624,0.5794252584554349,0.4522367803611055,0.5436822116192127,7,186,145866498.292,32849026.396,47.14375725,-122.4443888659279
238458,Carroll University,Waukesha,WI,Presbyterian,0.5984554796951078,0.5565654364460696,0.4812233188590077,0.5431653492830177,7,187,109211033.467,33065406.307,43.00395265,-88.22926408934816
120254,Occidental College,Los Angeles,CA,Presbyterian,0.5147895359271978,0.5316043052974315,0.570867485354625,0.5405932036851638,7,188,647599161.621,41106314.906,34.12719495,-118.209920299892
186283,Rider University,Lawrenceville,NJ,Not applicable,0.621532379803078,0.6226075207320501,0.4176414420847136,0.5401501471998901,7,189,93105354.465,44922339.852,40.279176,-74.733827
146612,Lewis University,Romeoville,IL,Roman Catholic               ,0.550369505791904,0.6803950470492356,0.4589680181548031,0.5397827361368768,7,190,129706032.69,57398904.965,41.60277235,-88.08221382800252
197133,Vassar College,Poughkeepsie,NY,Not applicable,0.5270625197189953,0.5490248619683726,0.5448257506165226,0.5385616369398363,7,191,1440949194.175,78192801.892,41.686786,-73.8956971
219949,Cumberland University,Lebanon,TN,Not applicable,0.5725439301111424,0.6014321737038544,0.4719734181316058,0.538070371111115,7,192,30637378.186,10849786.072,36.20463525,-86.29971370104121
224323,University of Dallas,Irving,TX,Roman Catholic               ,0.5690024785617749,0.6185047290552845,0.4641244225896045,0.5369257804353649,7,193,102529121.625,23967502.22,32.8487635,-96.92256763370509
225247,Hardin-Simmons University,Abilene,TX,Baptist,0.5550522909091686,0.5444688516807004,0.514326955915313,0.5366383823428568,7,194,279106314.498,10543234.812,32.4777117,-99.73415759382408
173328,Concordia University-Saint Paul,Saint Paul,MN,Lutheran,0.4671749438766091,0.7744329433757469,0.4870630846970493,0.5365550519328269,7,195,53566572.079,22009265.196,44.9497767,-93.15731626748348
149781,Wheaton College,Wheaton,IL,Interdenominational,0.4865944205485664,0.5816956274044816,0.5632515068518411,0.5362833177376344,7,196,662050503.677,46041332.563,41.86963745,-88.09755524953694
112260,Claremont McKenna College,Claremont,CA,Not applicable,0.4086837105399563,0.53697807351121,0.6621373326466203,0.5357618932649968,7,197,1371196591.672,53330288.121,34.0999577,-117.7061791541111
219976,Lipscomb University,Nashville,TN,Churches of Christ,0.6232390504444829,0.5361008655724542,0.445880852247265,0.5348413763700377,7,198,122667623.6,57249788.571,36.10507165,-86.79864091820343
155177,Hesston College,Hesston,KS,Anabaptist,0.2646466159419614,0.4290384460610893,0.8575607782607274,0.5347927905427452,7,199,17468889.166,3548880.705,38.13468465,-97.43391833739682
233426,Roanoke College,Salem,VA,Lutheran,0.5489685049183846,0.5005367031014499,0.5340904050870214,0.5333327721826678,7,200,177318748.563,24646801.504,37.29778755,-80.05499962542144
218414,Newberry College,Newberry,SC,Lutheran,0.5956318693852347,0.5646066821540134,0.4468826263336441,0.529900487388467,7,201,22655839.486,9452197.183,34.2852622,-81.6216373558786
133979,Florida Memorial University,Miami Gardens,FL,Baptist,0.576586118996417,0.588247393956556,0.4540390643582,0.5298738765947344,7,202,8702986.563,4706023.568,25.9175201,-80.27068544105553
153001,Buena Vista University,Storm Lake,IA,Presbyterian,0.3328019802650176,0.9483260075236412,0.5172555703667383,0.5296635600727251,7,203,177292757.421,8930826.783,42.6405657,-95.20969795805097
143084,Augustana College,Rock Island,IL,Lutheran,0.5483613068879933,0.5595607036755571,0.4947242941842935,0.5291345338218066,7,204,245717028.381,24885002.702,41.5015277,-90.550369870788
164270,McDaniel College,Westminster,MD,Not applicable,0.6002102593164477,0.5160153388660595,0.464271107757517,0.528976846264531,7,205,165073595.114,27979218.902,39.58516815,-77.00372758695082
195526,Skidmore College,Saratoga Springs,NY,Not applicable,0.5587689369175286,0.5069417787605086,0.5098636346001262,0.5288367860145158,7,206,534393004.307,60767824.155,43.09871785354964,-73.78422856497147
152390,Saint Mary's College,Notre Dame,IN,Roman Catholic               ,0.5337112517580984,0.4895782721236542,0.5408554350419769,0.5277481712793811,7,207,319598964.344,25637535.057,41.70747445,-86.25628011081898
140696,Oglethorpe University,Atlanta,GA,Interdenominational,0.6238347411972418,0.5144210886751707,0.437570675136965,0.5274200728207571,7,208,55394131.06,12735879.652,33.749291,-84.414452
163462,Mount St. Mary's University,Emmitsburg,MD,Roman Catholic               ,0.6016277128762199,0.5213161657243632,0.4555430067479779,0.5271103352080413,7,209,71321509.069,28650480.126,39.68056055,-77.3465509414935
188182,University of the Southwest,Hobbs,NM,Protestant,0.2736592439904116,0.4966606972870947,0.7953188238781168,0.5270053983754782,7,210,16597476.096,4260020.448,32.77421735,-103.1892648731455
161086,Colby College,Waterville,ME,Not applicable,0.4845852848598529,0.5452698531482245,0.5599300703785068,0.5268691132252638,7,211,1369901768.402,61595968.815,44.5684775,-69.66002565150262
147013,McKendree University,Lebanon,IL,Methodist,0.4662407527870878,0.7918313526487029,0.4535253251526827,0.5262375995601357,6,212,38765821.195,5875762.073,38.60868085,-89.81521661455423
189097,Barnard College,New York,NY,Not applicable,0.5501307432969874,0.5833316794428733,0.4726298814609862,0.5257517655257823,6,213,528864904.615,322390101889.014,40.8094864,-73.96355097608796
232706,Marymount University,Arlington,VA,Roman Catholic               ,0.5746369443222327,0.598398439349678,0.4404466907313511,0.5256839276911481,6,214,-39286451.986,23560771.77,38.9054445,-77.12768184296903
159656,Loyola University New Orleans,New Orleans,LA,Roman Catholic               ,0.5529138558543936,0.6005736524352447,0.4587031992686646,0.524737944425297,6,215,232988813.607,49280151.778,29.9356364,-90.12045155517568
186432,Saint Peter's University,Jersey City,NJ,Roman Catholic               ,0.5326657427568584,0.6661108195383441,0.445424061046066,0.5244272925848182,6,216,42989012.697,14111466.175,40.7276245,-74.07216785370294
167996,Stonehill College,Easton,MA,Roman Catholic               ,0.5425846346077613,0.5735213055112909,0.4798576720358935,0.5236655447001153,6,217,380113244.976,33743770.194,42.05997765,-71.07932570575417
133492,Eckerd College,Saint Petersburg,FL,Presbyterian,0.6056411672495169,0.4627070696464435,0.4717186966332947,0.5234728683980504,6,218,92936720.648,32207944.155,27.71426575,-82.68554318351735
191676,Houghton University,Houghton,NY,Wesleyan,0.2999385814091776,0.3861029603971685,0.8145914842239613,0.5231269324753535,6,219,89956948.343,8654170.902,42.426287,-78.155462892227
217749,Bob Jones University,Greenville,SC,Protestant,0.5597918829976939,0.6026180427582621,0.4465453953311138,0.5230315879696661,6,220,22240535.199,24079485.34,34.8718605,-82.36517984802921
148627,Saint Xavier University,Chicago,IL,Roman Catholic               ,0.6244358707169086,0.5504847393822061,0.4077854744204765,0.5229495509652694,6,221,86551515.573,22231406.823,41.70792405,-87.71463117997662
147536,National Louis University,Chicago,IL,Not applicable,0.6486406594932858,0.4014963687663219,0.4561025567266371,0.5221827670497527,6,222,100934774.345,46520274.861,41.87990865,-87.62490237384526
228042,Schreiner University,Kerrville,TX,Presbyterian,0.4789378839623991,0.5639339231099648,0.5430844858716705,0.5216000622720879,6,223,76439716.079,9514770.881,30.03127035,-99.13024647445344
204909,Ohio Wesleyan University,Delaware,OH,Methodist,0.3880162423276675,0.7194013841040511,0.5562610544901029,0.5215917059961732,6,224,345939913.02,15879358.588,40.292858,-83.06427625448865
191515,Hamilton College,Clinton,NY,Interdenominational,0.4247897680065803,0.550146870125557,0.6038574221203401,0.5215115278964904,6,225,1562290689.945,57714141.98,43.0537974,-75.40693894376341
174862,Crown College,Saint Bonifacius,MN,Evangelical Christian,0.373474912795458,0.9517117937951478,0.454170842517281,0.5213589763819695,6,226,12491070.895,3196934.288,44.88413435,-93.74256433121
209056,Lewis & Clark College,Portland,OR,Not applicable,0.5663126955366878,0.5482463444867371,0.4620064271218141,0.5209578633421702,6,227,340541827.839,49683465.92,45.44850495,-122.6700383929096
176053,Mississippi College,Clinton,MS,Baptist,0.5267588670513575,0.5707693318794127,0.484267057473673,0.5185513367774964,6,228,90335905.662,33982582.76,32.3354174,-90.33188238452227
217059,York College of Pennsylvania,York,PA,Not applicable,0.5332618193128897,0.504392103553857,0.5093263509169119,0.5179117886805887,6,229,193108158.109,44751937.381,39.9474471,-76.72679844421862
110413,California Lutheran University,Thousand Oaks,CA,Lutheran,0.5399768624447843,0.5872268791968583,0.4567232349998009,0.5161040390900415,6,230,177402642.081,34385671.429,34.22655655,-118.8785216793059
145725,Illinois Institute of Technology,Chicago,IL,Not applicable,0.5182925527486846,0.6679758764134154,0.4378275392983257,0.5160121507664306,6,231,325075410.805,89432524.164,41.83616405,-87.62647227745128
153269,Drake University,Des Moines,IA,Not applicable,0.5202499542320284,0.5552824281582414,0.4917853091068281,0.5158613947907732,6,232,309201195.819,50243851.18,41.60307425,-93.6552753180374
207971,University of Tulsa,Tulsa,OK,Presbyterian,0.4284140791504902,0.5747954969046596,0.5728737836215818,0.5154884982888795,6,233,774445314.685,37136348.526,36.1523306,-95.94596023877985
141167,Thomas University,Thomasville,GA,Not applicable,0.471075167794465,0.7233620926853201,0.4555168761342528,0.5152808957577301,6,234,7590070.348,7864359.373,30.8151379,-83.96435262333654
126669,Colorado Christian University,Lakewood,CO,Interdenominational,0.5063576493567007,0.6733517208023402,0.4405895895092206,0.5134193866877225,6,235,13890359.104,31544909.041,39.7129396,-105.0952693636912
182670,Dartmouth College,Hanover,NH,Not applicable,0.6415846306462345,0.5839291245060072,0.3498895539236458,0.513322925264423,6,236,10766698370.633,212536331.628,43.7033798,-72.28860224553567
175227,Dunwoody College of Technology,Minneapolis,MN,Not applicable,0.5261605825460808,0.4126176753303307,0.5496370093352185,0.5128586213946652,6,237,130298819.49,34188090.321,44.9731679,-93.29066773372568
208822,George Fox University,Newberg,OR,Friends,0.5438314854588333,0.542877078828297,0.4654473819482522,0.5122713813484545,6,238,34297851.568,52501919.151,45.3038562,-122.9665911824416
194091,New York Institute of Technology,Old Westbury,NY,Not applicable,0.5733194677867111,0.499514916836982,0.4564501879378849,0.51179485225636,6,239,91086998.448,96753669.29,40.80795904999999,-73.60628896763087
239716,Saint Norbert College,De Pere,WI,Roman Catholic               ,0.5122518599141151,0.5347442574602791,0.4970734629554855,0.5106736957207497,6,240,185309261.437,19202973.812,44.444529,-88.071131
226231,LeTourneau University,Longview,TX,Interdenominational,0.5388906962492359,0.5816547659072826,0.4460779791864781,0.5102955844053638,6,241,33535602.32,21262138.701,32.46575895,-94.726444524352
165334,Clark University,Worcester,MA,Not applicable,0.5232897923477484,0.5633388646697173,0.4692501136516558,0.5096689224907337,6,242,519220197.404,100499479.035,42.25146814999999,-71.82295086144981
212577,Franklin and Marshall College,Lancaster,PA,Not applicable,0.4166179574764396,0.6416573885414689,0.5352290996486727,0.5090715188436666,6,243,478470289.609,30753616.865,40.881897,-79.240595
226587,McMurry University,Abilene,TX,Methodist,0.5575694272231038,0.3922809890744138,0.5184179506897759,0.5088598475285429,6,244,81508840.133,10179531.171,32.429358,-99.74872217744309
224527,East Texas Baptist University,Marshall,TX,Baptist,0.5621834088017581,0.4805527893365258,0.4696914509509893,0.5088501664387804,6,245,38381286.655,12676043.293,32.55795265,-94.37511342798528
141644,Hawaii Pacific University,Honolulu,HI,Not applicable,0.5630644672832742,0.5593545024697553,0.4291799020405631,0.5087422423069188,6,246,47526999.914,13392603.946,21.37952275,-157.7830819456748
178891,Ranken Technical College,Saint Louis,MO,Not applicable,0.5377324122865923,0.4807902275806388,0.4936158225770317,0.508694210362106,6,247,15626770.275,10810064.603,38.6534824,-90.24921783355836
174792,Saint Johns University,Collegeville,MN,Roman Catholic               ,0.4483740608823893,0.5656775202521218,0.539920576193262,0.5084599378378101,6,248,348293685.553,23582930.385,45.58264,-94.39271
154712,Benedictine College,Atchison,KS,Roman Catholic               ,0.5010932827866053,0.5964617027428971,0.4708346021215804,0.508047905933725,6,249,80557269.571,22513286.653,39.57489275,-95.11379211168315
217536,Salve Regina University,Newport,RI,Roman Catholic               ,0.5054459765363807,0.5986081158613383,0.4633452620250948,0.5072203822400231,6,250,91651492.984,28469939.293,41.47120200000001,-71.30049366464249
209825,University of Portland,Portland,OR,Roman Catholic               ,0.5100808828449065,0.5027114759694126,0.5047394091270223,0.506470080628598,6,251,366209950.192,77787126.908,45.5736806,-122.7282877818709
230959,Middlebury College,Middlebury,VT,Not applicable,0.4523034668479366,0.566542358508578,0.5304195388190305,0.5064018732937305,6,252,1782253826.174,108850237.03,44.00366955,-73.17295278964315
217305,New England Institute of Technology,East Greenwich,RI,Not applicable,0.4540337893391233,0.4880354180089395,0.5677196515743455,0.5063277969767555,6,253,289046941.425,26802964.997,41.6602712,-71.50135499179412
236328,University of Puget Sound,Tacoma,WA,Methodist,0.4722913921591461,0.50161275220803,0.5415969673023842,0.5058888232052419,6,254,548364873.475,28627567.033,47.261437,-122.4809573217707
119173,Mount Saint Mary's University,Los Angeles,CA,Roman Catholic               ,0.5621227096176309,0.4163593422827567,0.4930785101357629,0.505353123854746,6,255,193391510.075,31854818.548,34.08522005,-118.4824686305502
169716,University of Detroit Mercy,Detroit,MI,Roman Catholic               ,0.5130986773154749,0.5571250685527804,0.4686238443433701,0.5041007247683759,6,256,123514928.294,55004919.309,42.41403185,-83.13786010722785
132471,Barry University,Miami,FL,Roman Catholic               ,0.5677417919786433,0.4949688433281984,0.4449571265024919,0.5040560564198635,6,257,62886041.716,77416851.399,25.8790289,-80.20151680720551
168254,Western New England University,Springfield,MA,Not applicable,0.5394557112947613,0.5444240254585115,0.4483139364605375,0.5039739390074386,6,258,77043321.444,35338094.343,42.1125825,-72.51478135708936
168528,Adrian College,Adrian,MI,Methodist,0.4864879684484558,0.6317825815273264,0.4564286852791624,0.5035026364785707,6,259,66246897.227,8039005.531,41.89849465,-84.06083239910039
461795,North American University,Stafford,TX,Not applicable,0.47287957843526,0.7101746368515556,0.4305091120782112,0.5033581999765866,6,260,0.0,3053126.959,33.619552,-101.87037
198215,Catawba College,Salisbury,NC,United Church of Christ,0.3986792590637066,0.4967534238177402,0.6100455661625346,0.5028730806989888,6,261,570661751.383,16091881.168,35.69155045,-80.48600853247686
209922,Reed College,Portland,OR,Not applicable,0.4361015297424478,0.4900888763402966,0.5737881104359015,0.5019957699208779,6,262,889774231.258,43718805.833,45.48149925,-122.6310136075346
151290,Indiana Institute of Technology,Fort Wayne,IN,Not applicable,0.4831444944367327,0.5534642088963009,0.4948640450552667,0.5018915695147377,6,263,201715108.596,18485885.739,41.07754835,-85.11768473673075
151263,University of Indianapolis,Indianapolis,IN,Methodist,0.5888771405182673,0.4354450577438355,0.447920805582589,0.5017953419304,6,264,147068704.194,54384659.208,39.70939645,-86.13445225207252
151801,Indiana Wesleyan University-Marion,Marion,IN,Wesleyan,0.5458407037080679,0.3912402023705826,0.5117596035797374,0.5012968072193468,6,265,330023953.784,33134418.646,40.5163759,-85.66416502625239
178059,Maryville University of Saint Louis,Saint Louis,MO,Roman Catholic,0.5475184185893047,0.5069639076936313,0.4521422600749653,0.501242033223821,6,266,81578590.274,75444208.577,38.643504,-90.505204
233541,Shenandoah University,Winchester,VA,Methodist,0.5341972722157463,0.5174545416542213,0.4600310671630807,0.5011690851144207,6,267,91468760.278,45328925.076,39.16630535,-78.15876380974831
198561,Gardner-Webb University,Boiling Springs,NC,Baptist,0.5325427780870786,0.5081862075473116,0.4659587695065499,0.5010269794022515,6,268,76768195.489,24179541.473,35.24782945,-81.67023803083481
233611,Southern Virginia University,Buena Vista,VA,The Church of Jesus Christ of Latter-day Saints,0.4109165064359271,0.7847158956893183,0.4474896241159084,0.5002755660432086,6,269,2102159.547,5398926.243,37.74181535,-79.34037954670688
162760,Hood College,Frederick,MD,United Church of Christ,0.4993123427150286,0.5235790077089024,0.4895130860277717,0.5002415865210637,6,270,167463828.072,17815241.121,39.4229618,-77.41891707264057
221519,The University of the South,Sewanee,TN,Episcopal,0.4466721346265944,0.5291972197681076,0.5384810678749197,0.4999108342323626,6,271,547751685.405,29815826.369,35.20440405,-85.91895058826586
217235,Johnson & Wales University-Providence,Providence,RI,Interdenominational,0.5849080806405378,0.2514800606918105,0.5390336849717687,0.4998968863061458,6,272,453968599.208,48779219.391,41.78823615,-71.39038710016683
233295,Randolph-Macon College,Ashland,VA,Methodist,0.4822803514788179,0.5271974170734155,0.5033466513718527,0.4996900061083704,6,273,266170850.373,23172961.131,37.7625105,-77.47954212782594
192323,Le Moyne College,Syracuse,NY,Roman Catholic               ,0.4830220719197644,0.5700248281740804,0.4799293364608176,0.4991762101643316,6,274,274871296.043,34897790.391,43.04834115,-76.08517610832246
204635,Ohio Northern University,Ada,OH,Methodist,0.4865607532714353,0.5744152755945454,0.4739245897510853,0.4990658796429809,6,275,222732368.854,50475077.444,40.76557505,-83.83356241022632
195544,St. Joseph's University-New York,Brooklyn,NY,Roman Catholic,0.4922383182436572,0.6088597952272611,0.449832789383149,0.4985802588427042,6,276,89161961.582,44409777.386,40.69042755,-73.96777524013841
158477,Centenary College of Louisiana,Shreveport,LA,Methodist,0.5134869804266162,0.4210164842568546,0.5214089798601521,0.4981725124155819,6,277,162686063.668,7476551.009,32.4842248,-93.73171274297071
217493,Rhode Island School of Design,Providence,RI,Not applicable,0.4816803289586754,0.5780457758037634,0.4744975588697146,0.4980692371934063,6,278,469766689.809,53249427.575,41.82710375,-71.40639007145332
156213,Asbury University,Wilmore,KY,Interdenominational,0.4858860779403891,0.4983618898454965,0.5082036552863898,0.4973114871940896,6,279,88642139.008,11318642.592,37.8633341,-84.66528114627815
146481,Lake Forest College,Lake Forest,IL,Presbyterian,0.477531659927706,0.6129277889774908,0.4589739902180592,0.4971705667069573,6,280,119688529.68,24499116.182,42.24761745,-87.8294820650179
202763,The University of Findlay,Findlay,OH,Church of God,0.5246726940326549,0.5138668696291275,0.4607970159652021,0.4969495633717952,6,281,66784971.941,34097312.071,40.9520749,-83.65536133422265
221351,Rhodes College,Memphis,TN,Presbyterian,0.4663148743140909,0.5672084793085233,0.4923276200525122,0.4968938067969941,6,282,464369373.064,30758598.725,35.15564375,-89.98893549446169
101435,Huntingdon College,Montgomery,AL,Methodist,0.4958740003384339,0.5055150859129343,0.4926147039601602,0.4964968829341914,6,283,63675828.968,7009218.188,32.3493496,-86.28521194328175
173647,Gustavus Adolphus College,Saint Peter,MN,Lutheran,0.4588983323464322,0.5538789490485472,0.5044549369910354,0.4961167108039551,6,284,373783675.686,45987647.422,44.3241873,-93.97146812490595
191931,Iona University,New Rochelle,NY,Roman Catholic               ,0.5351731600781047,0.4705638230689784,0.4689703734228111,0.4957633983905319,6,285,265444467.585,41524857.892,40.92723049999999,-73.78569089605243
148487,Roosevelt University,Chicago,IL,Not applicable,0.6083952408337151,0.4118185471506142,0.4248050532156826,0.4956267666817266,6,286,165398539.195,50413199.742,41.87613485,-87.6251816505098
195720,St. John Fisher University,Rochester,NY,Roman Catholic               ,0.4900826039804703,0.5331183648288432,0.4808355551609949,0.4949847836365059,6,287,176083489.896,42571278.876,43.11506305,-77.51043167191582
219000,Augustana University,Sioux Falls,SD,Lutheran,0.4444404775300471,0.5980529970320073,0.4934260777965951,0.4947516574051615,6,288,140305149.33,26769729.224,43.52533409999999,-96.73875740832086
176628,Avila University,Kansas City,MO,Roman Catholic               ,0.5573886372050947,0.4620488469746958,0.448050817698716,0.4945732177715852,6,289,21912228.683,8977094.656,38.91232935,-94.59156294743664
399911,Soka University of America,Aliso Viejo,CA,Other,0.3094812563127092,0.4806735721997044,0.6864141855199668,0.4945511585272641,6,290,1651240054.129,23424470.099,33.55467520000001,-117.7347404585082
193973,Niagara University,Niagara University,NY,Roman Catholic               ,0.4768854919937174,0.6021123261298396,0.4574323069672538,0.4941331714899375,6,291,115935141.919,55131494.132,43.135814,-79.0349219
107141,John Brown University,Siloam Springs,AR,Interdenominational,0.3792879970700945,0.5978689216415042,0.5563356402255596,0.4938367906827364,6,292,189082998.262,17922926.527,36.19083695,-94.55957189163512
238661,Edgewood College,Madison,WI,Roman Catholic               ,0.3505800733147356,0.7418751154327117,0.5124011016591676,0.4935607277775607,6,293,59610424.1,8046373.73,43.0588111,-89.42122409051677
203535,Kenyon College,Gambier,OH,Interdenominational,0.4281358499705089,0.5371312551204088,0.5370632266385928,0.493516767602541,6,294,668014003.67,49877304.897,40.3725696,-82.39427459529426
145646,Illinois Wesleyan University,Bloomington,IL,Not applicable,0.4425737568373021,0.5746304505418522,0.5037288008172466,0.4934461385096154,6,295,280247494.094,19688476.884,40.49242715,-88.99042108232373
212674,Gettysburg College,Gettysburg,PA,Lutheran,0.4480110469626853,0.5767805818705269,0.4961257580144561,0.4930075843536815,6,296,460839110.246,38248663.551,39.8374688,-77.23964053600594
214166,Mount Aloysius College,Cresson,PA,Roman Catholic               ,0.3818637212733986,0.6703635694681813,0.5141103667648226,0.4924599484532035,6,297,70951109.824,7844767.61,40.45871235,-78.60403790736467
144883,East-West University,Chicago,IL,Interdenominational,0.3623201470131369,0.5250257451417819,0.6046690080029566,0.4918330102471788,6,298,15918651.608,3340472.244,41.8712713,-87.62506935993366
203368,John Carroll University,University Heights,OH,Roman Catholic               ,0.3606081533368492,0.7486052256397123,0.4938499647500447,0.4914921410177523,6,299,325715589.381,39553593.23,41.49038105,-81.52875868134805
192110,The Juilliard School,New York,NY,Not applicable,0.2587199227893143,0.4666691079118553,0.7345577624663543,0.4907192683340617,6,300,1572716706.269,39189910.605,40.7738393,-73.9831016
210401,Willamette University,Salem,OR,Methodist,0.4863963405724344,0.5072543743612166,0.4866997742900784,0.490687295700613,6,301,409997685.993,32551966.246,44.9355889,-123.0308129250331
209409,Bushnell University,Eugene,OR,Protestant,0.2620363427808535,0.5046748154060955,0.7116886013604342,0.4904906073421875,6,302,21653717.2,4140635.578,44.04908349999999,-123.0813010457852
212009,Dickinson College,Carlisle,PA,Methodist,0.4441071899689703,0.5178690933688528,0.5229942065296698,0.4904227784861988,6,303,735225413.689,31115895.756,40.20281155,-77.19957403793873
153250,Dordt University,Sioux Center,IA,Church of God,0.458793421503437,0.52384543410281,0.5047702495310107,0.4901972453986866,6,304,76366256.958,23754503.008,43.08066095,-96.16404679319116
192703,Manhattan College,Riverdale,NY,Roman Catholic               ,0.5156236909305809,0.5001580957719186,0.4577867955736105,0.4893857929365047,6,305,194096872.743,63393053.189,40.8907,-73.90757
168281,Wheaton College (Massachusetts),Norton,MA,Protestant,0.476719762687783,0.5339434494085827,0.4787799023049604,0.4889832455380653,6,306,281526224.344,27453695.48,41.9670817,-71.1830931786674
232025,Emory & Henry University,Emory,VA,Methodist,0.5026646432215297,0.4892275612005724,0.4736255465127485,0.4883571240226861,6,307,105938491.072,21338142.985,36.605177,-79.877452
152673,Wabash College,Crawfordsville,IN,Not applicable,0.3808044232605644,0.5150543237468903,0.5790591386104872,0.4869825154508201,6,308,432729804.686,16957807.908,40.0367517,-86.90726990345898
138600,Agnes Scott College,Decatur,GA,Presbyterian,0.441098286536281,0.5427359308328222,0.502048154144502,0.4858077886479696,6,309,224590950.489,19811012.608,33.7688851,-84.2944452
160977,Bates College,Lewiston,ME,Baptist,0.4064390854537613,0.5839482729025249,0.513105326076678,0.4846110015220604,6,310,538171251.941,54706170.573,44.10656935,-70.20282870728443
180984,Concordia University-Nebraska,Seward,NE,Lutheran,0.421148529372631,0.5841074324589538,0.4981321295410638,0.4845328508869937,6,311,90111193.665,9078929.892,40.91364059999999,-97.08751020355166
157216,Lindsey Wilson College,Columbia,KY,Methodist,0.444194469870167,0.5743966832676122,0.4789991396132805,0.4841507211595103,6,312,42007451.572,12169410.972,37.1020748,-85.29968609783923
216278,Susquehanna University,Selinsgrove,PA,Lutheran,0.4467658984273565,0.5829325392335717,0.4705915198676594,0.4835206236249281,6,313,235717964.662,28921891.625,40.79688725,-76.8750374280338
220473,Johnson University,Knoxville,TN,Protestant,0.3097535267992937,0.5501507736633886,0.6226233132156471,0.4830194249712509,6,314,131121696.588,8988277.68,35.93541995,-83.74939490120485
231581,Bridgewater College,Bridgewater,VA,Anabaptist,0.4453413223398521,0.5735257882410868,0.4748530997611794,0.4827760103975241,6,315,114186929.741,9529059.852,38.3772626,-78.96809814655431
166656,MCPHS University,Boston,MA,Not applicable,0.4658709480637209,0.3025446136286092,0.5895087569342022,0.4827018649201087,6,316,68860973.745,134263461.976,42.352213,-71.110719
204936,Otterbein University,Westerville,OH,Methodist,0.4261558899900294,0.6010839648145009,0.4771243764944473,0.4815216004465093,5,317,141448044.691,22003967.559,40.127744,-82.93627779442062
171492,Northwood University,Midland,MI,Not applicable,0.3957447237598157,0.5383606245913088,0.5367092921855878,0.4806676626200251,5,318,114060570.806,11177893.78,43.6311535,-84.27681755477265
129534,Holy Apostles College and Seminary,Cromwell,CT,Roman Catholic               ,0.2418229132050116,0.9457492010916022,0.486253896113,0.480359057513318,5,319,0.0,5065295.573,41.6061767,-72.64540399602825
169327,Cleary University,Howell,MI,Not applicable,0.2755785613540426,0.9781454369375768,0.4359487872383359,0.4802018441820852,5,320,2148843.219,2457261.866,42.58746595,-83.88048112861308
204185,University of Mount Union,Alliance,OH,Methodist,0.4284281511788264,0.5079794077761771,0.5175134863495803,0.4799823985079725,5,321,167995141.339,24115150.601,40.90423869999999,-81.1106865488107
201195,Baldwin Wallace University,Berea,OH,Methodist,0.5279980850131458,0.4207734234199378,0.46152217446051,0.4799602157574987,5,322,193218530.128,51287304.474,41.37161015,-81.84848946631152
183239,Saint Anselm College,Manchester,NH,Roman Catholic               ,0.4069558514570917,0.5973816107098042,0.4938208884561389,0.4797853485387276,5,323,248185032.898,30559595.383,42.98451975,-71.50800622385864
212601,Gannon University,Erie,PA,Roman Catholic               ,0.4489614104345651,0.5820252016179603,0.4595105671630253,0.4797826348148555,5,324,90840219.032,50403875.98,42.1281052,-80.0867293
213996,Messiah University,Mechanicsburg,PA,Interdenominational,0.4480502624476304,0.5845936670806378,0.4585227965820206,0.4795363971943515,5,325,110423257.013,32053413.55,40.19369145,-76.97605268396879
234164,Virginia Union University,Richmond,VA,Baptist,0.4691793070328993,0.5370025282247246,0.4610609840117041,0.4794882160760628,5,326,27247024.571,6674440.187,37.5617598,-77.45105977399695
137546,Stetson University,DeLand,FL,Not applicable,0.4883839146735734,0.4624612880391091,0.4784205835102164,0.4792146564777685,5,327,421441570.603,56449734.084,29.03653465,-81.30054111521412
115409,Harvey Mudd College,Claremont,CA,Not applicable,0.3518041362088395,0.5579376589950187,0.5662692647954655,0.4788391718741644,5,328,494843095.506,29890410.409,34.10614005,-117.7087281497148
220631,Lincoln Memorial University,Harrogate,TN,Not applicable,0.4525982394079412,0.5138345140565782,0.4866785642710634,0.4784783167204252,5,329,61927129.819,55076767.041,36.5718381,-83.66162404836976
179946,Westminster College,Fulton,MO,Presbyterian,0.3003772945059747,0.4021377027233978,0.6944895937041747,0.4784429422477572,5,330,63376832.418,6149223.493,38.8489337,-91.9568394031446
232308,Hollins University,Roanoke,VA,Not applicable,0.359187188753966,0.4393526834620488,0.6169419718977254,0.4783657353602442,5,331,366494932.481,17329855.013,37.3573684,-79.94365952263512
189413,Boricua College,New York,NY,Not applicable,0.2441132746278544,0.817213588621004,0.5427466820691651,0.4781891170530975,5,332,75000.0,61476.074,40.7013535,-73.942403
174747,College of Saint Benedict,Saint Joseph,MN,Roman Catholic               ,0.4236921127749998,0.5501148690950028,0.4963642958735556,0.4780474294394104,5,333,139117428.055,22279727.562,45.5594818,-94.3182962882594
206048,Tiffin University,Tiffin,OH,Not applicable,0.4281100734276589,0.6258904964417142,0.4516829524795907,0.4770802461847518,5,334,25143645.379,13324716.743,41.11911195,-83.18558345227916
446048,Ave Maria University,Ave Maria,FL,Roman Catholic               ,0.4682449126767804,0.4940942473978941,0.4767902093478367,0.4768320224152878,5,335,10716001.815,29758888.425,26.33623575,-81.43985445316366
200217,University of Mary,Bismarck,ND,Roman Catholic               ,0.41882994747317,0.5833952244473604,0.4801588376503118,0.4762703681892028,5,336,80531197.061,33874366.885,46.72486905,-100.7516229007192
178697,College of the Ozarks,Point Lookout,MO,Interdenominational,0.3432336982319727,0.4992201419700939,0.5970209177988308,0.4759810336058797,5,337,699206960.681,12107811.999,36.617958,-93.23650382366762
222983,Austin College,Sherman,TX,Presbyterian,0.4249627471382734,0.5188040400229295,0.5052190989402359,0.4758402135770615,5,338,192402208.693,15589692.695,33.6474084,-96.59801788312646
221971,Union University,Jackson,TN,Baptist,0.3707595482406615,0.5399289594984549,0.5484117953178378,0.4756729428313803,5,339,64660110.267,33972172.964,35.67712415,-88.86094997728624
193399,University of Mount Saint Vincent,Bronx,NY,Roman Catholic               ,0.4329001700762083,0.6132258833029118,0.4486060222668358,0.4752327621969155,5,340,59825554.916,53581567.322,40.91285705,-73.9069680173387
193292,Molloy College,Rockville Centre,NY,Roman Catholic               ,0.5100488029506476,0.4643694867482639,0.4433119345760587,0.4742094129182806,5,341,59725036.107,56064665.005,40.68543,-73.625657
152336,University of Saint Francis-Fort Wayne,Fort Wayne,IN,Roman Catholic               ,0.5023524219205016,0.438421481004503,0.4633019407832196,0.4739446242802531,5,342,39171150.626,19180194.8,41.08693075,-85.17898051025168
173665,Hamline University,Saint Paul,MN,Methodist,0.4249787931070023,0.5758384335238137,0.4702082810330057,0.4732364762943094,5,343,148662628.756,20492746.593,44.96651135,-93.16458641389622
165671,Emmanuel College,Boston,MA,Roman Catholic               ,0.4650201695478784,0.5209333717743647,0.457268783539127,0.4730951139922507,5,344,170344730.306,20409444.376,42.34068480000001,-71.1029058793161
206589,The College of Wooster,Wooster,OH,Presbyterian,0.4143025620751865,0.4975979773521801,0.5184544782012692,0.4726349124227158,5,345,487929095.892,35347360.079,40.804866,-81.936377
209065,Linfield University,McMinnville,OR,Baptist,0.390721459936477,0.5731571522324422,0.503897708951973,0.4724834896824419,5,346,100128289.63,18541865.672,45.1984734,-123.1981383587192
156286,Bellarmine University,Louisville,KY,Roman Catholic               ,0.5061214162748056,0.448015101117889,0.4510194148399187,0.4724541429006962,5,347,43557469.98,35309756.024,38.2187504,-85.70584113751073
189857,Central Yeshiva Tomchei Tmimim Lubavitz,Brooklyn,NY,Jewish,0.3183749138776576,0.6466926423613526,0.5391722607624981,0.4723687260248614,5,348,0.0,728461.379,40.692532,-73.990997
141361,Young Harris College,Young Harris,GA,Methodist,0.43775828349402,0.4583639553473657,0.5137506242611035,0.4722894920724906,5,349,57319246.267,7490968.304,34.9357023,-83.84596813095078
239017,Lawrence University,Appleton,WI,Not applicable,0.4284591361665196,0.4905310646096421,0.5066593121246685,0.472163025080751,5,350,561131931.804,26387518.079,44.2607247,-88.39889100394868
173300,Concordia College at Moorhead,Moorhead,MN,Lutheran,0.434845128504844,0.5517856021046755,0.4696722739504552,0.4721593527847839,5,351,208638478.978,23765978.312,46.873809,-96.767816
139393,Covenant College,Lookout Mountain,GA,Presbyterian,0.4218338089587479,0.527267064103868,0.4936551242461462,0.4716528070402742,5,352,69990149.054,7302815.262,34.95821,-85.379817
214157,Moravian University,Bethlehem,PA,Protestant,0.4533307286223789,0.5169117550223064,0.4665194004689621,0.471318682272727,5,353,164187909.738,40358942.683,40.63090535,-75.38352409365376
161457,University of New England,Biddeford,ME,Not applicable,0.4468451047346115,0.4587840062304277,0.5013545742921944,0.4710463808605699,5,354,373554532.241,71711740.427,43.4591747,-70.38622144492447
170675,Lawrence Technological University,Southfield,MI,Not applicable,0.4557810570075287,0.5401421629261121,0.451518181425384,0.4709388392726792,5,355,54783985.461,36017504.137,42.4752647,-83.25063727571097
206437,Walsh University,North Canton,OH,Roman Catholic               ,0.3482392944982042,0.59477023054042,0.5296198087565291,0.4701093104192248,5,356,43211770.097,13999529.736,40.8736512,-81.36876839501872
232256,Hampden-Sydney College,Hampden-Sydney,VA,Presbyterian,0.3480098372171426,0.5110018944618417,0.5715480599403725,0.4700519461941946,5,357,311043139.943,13048072.381,37.24237495,-78.46056918726649
215655,Robert Morris University,Moon Township,PA,Not applicable,0.4604359445434688,0.5493384994664773,0.4392860765931592,0.4697433881188642,5,358,59246999.019,47405931.112,40.52155855,-80.21157831862749
215442,Point Park University,Pittsburgh,PA,Not applicable,0.4043236043071917,0.6069808977437682,0.465146650283747,0.4691761802649808,5,359,56127965.633,30500878.466,40.4386483,-80.0017698160382
141486,Chaminade University of Honolulu,Honolulu,HI,Roman Catholic               ,0.4074256637647917,0.6025938984562476,0.4611105186291088,0.4679244727963134,5,360,41599330.531,33005183.327,21.29026655,-157.8073477636419
198136,Campbell University,Buies Creek,NC,Baptist,0.4770642791151036,0.4603511168386453,0.4624249565014613,0.46786466106606,5,361,214420609.208,55477455.257,35.408071,-78.73924679769573
154235,Saint Ambrose University,Davenport,IA,Roman Catholic               ,0.3884864055570992,0.5445568279373261,0.505975446849686,0.4667039973161998,5,362,269784163.69,25778437.871,42.505231,-90.698184
221892,Trevecca Nazarene University,Nashville,TN,Protestant,0.4146762519547863,0.5615377634326588,0.4712708047587865,0.4666830081313739,5,363,119142132.576,28510206.858,36.14154689999999,-86.75328273884115
189705,Canisius University,Buffalo,NY,Roman Catholic               ,0.3936974303204261,0.5380493601012084,0.5037241771280323,0.4665860851560085,5,364,171204951.251,11727166.539,42.92180235,-78.86104023134388
218441,North Greenville University,Tigerville,SC,Baptist,0.4819492711265815,0.4256408576695682,0.4710066256975718,0.4663139725758349,5,365,30956213.269,25695731.835,35.070227,-82.37443307070124
184348,Drew University,Madison,NJ,Methodist,0.4263226264436618,0.5922800543400912,0.4428374412037741,0.466106745147155,5,366,119531081.814,14520761.686,40.76053795,-74.42816053099715
170532,Kalamazoo College,Kalamazoo,MI,Not applicable,0.4268588115082024,0.491365416647096,0.4926498961499596,0.4660832739490985,5,367,338804828.182,26044878.072,42.29075735,-85.59936465969835
163976,St. John's College,Annapolis,MD,Not applicable,0.3394486112787324,0.539054782960067,0.5558838570085483,0.4659672703389035,5,368,281900839.615,7275846.691,38.98228315,-76.49223748074706
123165,Scripps College,Claremont,CA,Interdenominational,0.3680586252164415,0.4850104755524143,0.5538711319089293,0.4657994652769361,5,369,620597160.654,38371120.809,34.10391835,-117.7093442200858
121257,Pitzer College,Claremont,CA,Not applicable,0.4057060306733529,0.5477419399770015,0.4839132165450677,0.4653975247290125,5,370,192351775.922,28758769.333,34.10471765,-117.7050428284479
140234,LaGrange College,Lagrange,GA,Methodist,0.3520396737329831,0.6470352263563766,0.4869450459853977,0.4649984146778158,5,371,62373136.219,68231.081,33.03381105,-85.04675027949351
210775,Alvernia University,Reading,PA,Roman Catholic               ,0.411332274590317,0.584535298286015,0.4588528151600804,0.4649732793631063,5,372,23809612.885,13664362.875,40.3099619,-75.93530460019305
107512,Ouachita Baptist University,Arkadelphia,AR,Baptist,0.4163391556748685,0.5333606474506316,0.4783568742359246,0.4645512428489782,5,373,151340751.651,18351949.85,34.1307617,-93.05250677656252
109651,Art Center College of Design,Pasadena,CA,Not applicable,0.4376115811475813,0.5170001728408515,0.4651453891065312,0.4645003905722377,5,374,166702816.018,77669792.23,34.16874025,-118.1851007250844
218821,Spartanburg Methodist College,Spartanburg,SC,Methodist,0.4733385312899539,0.4187042449171098,0.4780521784013834,0.4643035390180165,5,375,31084100.251,10535474.103,34.95293105,-81.96916849432738
190044,Clarkson University,Potsdam,NY,Not applicable,0.4361269014004246,0.5218610245455162,0.4630796507819901,0.464051642919631,5,376,254974816.654,73536734.595,44.65958875,-75.00623974830918
196866,Union College,Schenectady,NY,Baptist,0.4516278234710406,0.511135416583097,0.4516598229165816,0.4635361975122462,5,377,34318226.734,74846648.769,42.8175752,-73.92839165453219
157377,Midway University,Midway,KY,Protestant,0.3621881059305446,0.6732704550795163,0.4596482660367622,0.4633770235999323,5,378,35559032.022,8180425.802,38.14316615,-84.6730591943697
213826,Marywood University,Scranton,PA,Roman Catholic               ,0.3851465258378244,0.625011627748122,0.4605585266779764,0.4632754424459217,5,379,52839123.388,25510975.076,41.4345694,-75.63250168205998
198835,Lenoir-Rhyne University,Hickory,NC,Lutheran,0.4360775289623601,0.4649542213227691,0.4883449014524003,0.4627673822357199,5,380,161584213.369,14107283.88,35.74174755,-81.32675812958784
190372,The Cooper Union for the Advancement of Science and Art,New York,NY,Not applicable,0.3047165454921071,0.4893075019203727,0.6072754162403857,0.4627003377555785,5,381,1008925583.794,48843759.387,42.347439,-75.526109
176336,Southeastern Baptist College,Laurel,MS,Baptist,0.2400564484960699,0.9446029529557983,0.4444598387460251,0.4626975315156017,5,382,0.0,114376.474,31.736783,-89.140204
197911,Barton College,Wilson,NC,Protestant,0.4401519920090928,0.5370772003422106,0.4478260994517601,0.4625985189534385,5,383,32659105.628,7775321.452,35.7353597,-77.91246914152123
147660,North Central College,Naperville,IL,Methodist,0.4698156793439913,0.4255409604908198,0.4738549830401842,0.4625816923844587,5,384,143675157.361,34875168.018,41.77436545,-88.14274924248255
197984,Belmont Abbey College,Belmont,NC,Roman Catholic               ,0.5121814549026272,0.4137988203662318,0.4370980800916166,0.4624663996594353,5,385,11215593.673,14494375.64,35.2613455,-81.03635899466433
154527,Wartburg College,Waverly,IA,Lutheran,0.3896005746673304,0.6047314056795224,0.4635168497263677,0.4621865210652943,5,386,105913802.997,12057432.81,42.73114305,-92.48568382574044
155520,MidAmerica Nazarene University,Olathe,KS,Protestant,0.3201384321977052,0.3596452513068096,0.6539835551106022,0.4616406635273566,5,387,18812163.892,7590220.034,38.87397135,-94.782189935796
213376,Lackawanna College,Scranton,PA,Not applicable,0.3679909060595014,0.6304762344683568,0.4708608704973881,0.4616302829764738,5,388,11850306.892,12524021.652,41.41176365,-75.65867565883656
169479,Davenport University,Grand Rapids,MI,Not applicable,0.4619967178702227,0.5116829452132147,0.435261859770473,0.461229704504567,5,389,0.0,19899319.903,42.84920905,-85.53130919554428
217998,Erskine College,Due West,SC,Presbyterian,0.4437349517265832,0.49660813616191,0.460853787286265,0.4611552592861897,5,390,28758257.237,4506034.19,34.33219835,-82.39299839413458
183211,Rivier University,Nashua,NH,Roman Catholic               ,0.3254623669166998,0.7067289504050034,0.4728676618343481,0.4606691559820546,5,391,42804791.229,25656070.706,42.7391231,-71.45465518109557
145691,Illinois College,Jacksonville,IL,Presbyterian,0.3802097756922808,0.5543229395487381,0.4939835683852405,0.460547268982909,5,392,139984448.094,10409831.53,39.7291655,-90.24647315398732
233301,Randolph College,Lynchburg,VA,Interdenominational,0.4329623929044121,0.3310867428456775,0.5526350462616536,0.4604904463312391,5,393,211944670.913,8813072.464,37.43933375,-79.17093485132823
142294,The College of Idaho,Caldwell,ID,Presbyterian,0.4440140938283919,0.4264675074145154,0.4931876666086526,0.4601857950309183,5,394,135413929.835,9623946.486,43.645339,-116.680565
181446,Nebraska Wesleyan University,Lincoln,NE,Methodist,0.4239155305315098,0.5010189171070938,0.4757539248786464,0.4600742229256931,5,395,86489169.357,16099391.307,40.8383056,-96.64792960546532
112075,Concordia University-Irvine,Irvine,CA,Lutheran,0.4004282053098113,0.5456156476013736,0.4768865592185714,0.4600498082581804,5,396,77124887.42,33685110.305,33.65393299999999,-117.810899965439
140872,Reinhardt University,Waleska,GA,Methodist,0.4843672233377548,0.4134635344673712,0.4585031106858266,0.4598427580492634,5,397,47300054.92,7203755.42,34.32186065,-84.55274396651248
193584,Nazareth University,Rochester,NY,Interdenominational,0.4002128352696107,0.4975015624082001,0.5003501010732527,0.4597357855992322,5,398,97344919.158,32004816.465,43.1025786,-77.52006821627872
170037,Cornerstone University,Grand Rapids,MI,Interdenominational,0.4015328285188157,0.5137551310655535,0.4908234330412923,0.4597001667278037,5,399,21135676.681,9329388.177,42.98088915,-85.59574235212932
180106,Carroll College,Helena,MT,Roman Catholic               ,0.333722347949888,0.5314620780517259,0.5492358995330705,0.459499043340835,5,400,81671663.118,11733834.024,46.6018191,-112.0385010582579
160904,Xavier University of Louisiana,New Orleans,LA,Roman Catholic               ,0.4329474020073984,0.4709484863096572,0.4794078986471635,0.4591373095146539,5,401,190208737.676,36596094.465,29.9638897,-90.10922358519306
174899,The College of Saint Scholastica,Duluth,MN,Roman Catholic               ,0.4202325714931432,0.5100019328572168,0.4695659451897973,0.4579206829832225,5,402,119172059.162,32479293.045,46.814984,-92.090954
455257,Yeshiva of Machzikai Hadas,Brooklyn,NY,Jewish,0.2671069937789803,0.690840663707033,0.5312438770244223,0.4575189350724239,5,403,0.0,3805866.387,40.7,-73.95
207324,Oklahoma Christian University,Edmond,OK,Churches of Christ,0.3525999937264144,0.6673313246736875,0.4571970568483798,0.4573745314441848,5,404,66508111.676,12444053.771,35.613763,-97.470874
209612,Pacific University,Forest Grove,OR,United Church of Christ,0.4161031674072647,0.5006318108184428,0.4760604450555951,0.4569953457400211,5,405,69383733.016,50991190.085,45.52264630000001,-123.1093187330715
177339,Evangel University,Springfield,MO,Pentecostal,0.3383783653998408,0.6621119033832634,0.4721458887223171,0.4566264624763819,5,406,32784245.697,9608087.044,37.22175245,-93.26497163536374
204264,Muskingum University,New Concord,OH,Presbyterian,0.3892050065659937,0.5334605597936892,0.4852360733935259,0.4564733246005884,5,407,101320627.34,16676432.576,39.9995479,-81.73888231752169
132602,Bethune-Cookman University,Daytona Beach,FL,Methodist,0.5328908356887161,0.296980928524153,0.4596398750956546,0.4564174108171767,5,408,32659573.668,20775300.715,29.21185355,-81.03198250103571
164216,Washington College,Chestertown,MD,Not applicable,0.3766050020053452,0.4601452299605775,0.5340283758357265,0.4563055277805147,5,409,350849086.038,20958708.421,39.218376,-76.06925670472985
240107,Viterbo University,La Crosse,WI,Roman Catholic               ,0.3570106190035247,0.5950229314786148,0.4860865909327083,0.4562454842333545,5,410,77125998.673,12776474.391,43.80321085,-91.24456329560022
184612,Felician University,Lodi,NJ,Roman Catholic               ,0.4208900684956036,0.5469778990815366,0.4455590280436175,0.4559675434408468,5,411,19148849.378,18584113.612,40.8664885,-74.0926419
167783,Simmons University,Boston,MA,Not applicable,0.3761705800282729,0.6160875643941355,0.4552560265522337,0.4557799809018979,5,412,260552242.728,92495503.626,42.33893544999999,-71.10043183883623
175005,St Catherine University,Saint Paul,MN,Roman Catholic               ,0.4433245133355306,0.4678038707641567,0.4615088748512136,0.4554953183640892,5,413,146812062.078,29884426.747,44.924437,-93.18228844466312
183910,Caldwell University,Caldwell,NJ,Roman Catholic               ,0.4227285257929,0.5528312819335511,0.4376208863984974,0.4546959894597763,5,414,17557007.698,17330980.834,40.83390785,-74.27132972676327
127918,Regis University,Denver,CO,Roman Catholic               ,0.5066088460026034,0.3533688804575843,0.4528120750874634,0.454446709169915,5,415,113013625.596,40292457.89,39.78971110000001,-105.0313694671746
236452,Saint Martin's University,Lacey,WA,Roman Catholic               ,0.4437678779027858,0.4655637105941262,0.459060811490645,0.454245096879646,5,416,61193415.875,14516012.878,47.04343285,-122.8134395796864
220710,Maryville College,Maryville,TN,Presbyterian,0.4408449486521007,0.421516345669576,0.4835892448902416,0.454087428270398,5,417,90465298.668,8144199.336,35.751472,-83.9642249
174491,University of Northwestern-St Paul,Saint Paul,MN,Protestant,0.4456311431212066,0.4790746286833194,0.449075037543566,0.4536947424329012,5,418,26846265.413,23417211.074,44.943719,-93.094281
157809,Thomas More University,Crestview Hills,KY,Roman Catholic               ,0.4167987145731348,0.5171596325187497,0.4582727313384018,0.453458763579923,5,419,41056232.368,10235725.067,39.02091849999999,-84.56769555987898
153108,Central College,Pella,IA,Protestant,0.3702327097222183,0.5297222041591005,0.4980117281246143,0.4532518228247899,5,420,111624359.416,12048785.179,41.4036435,-92.93159877729258
167260,Nichols College,Dudley,MA,Not applicable,0.3912289361039608,0.5649665438636884,0.4581263952753177,0.4527314470555073,5,421,37936705.839,7902304.038,42.0418482,-71.92971577727883
213507,Lebanon Valley College,Annville,PA,Methodist,0.4034438258790346,0.5054803954395592,0.4754619910690366,0.4526626058432223,4,422,96791159.236,22639810.185,40.3345578,-76.51374559549934
168740,Andrews University,Berrien Springs,MI,Seventh Day Adventist,0.353677015131625,0.5807198843992851,0.4844707338934379,0.4514065309467078,4,423,69533154.021,24286160.448,41.96966265,-86.36331553855976
107080,Hendrix College,Conway,AR,Methodist,0.3533161845881201,0.5400323987542097,0.5045971713295101,0.4511834066938256,4,424,179109947.452,7661149.361,35.1008234,-92.4420508402078
140818,Piedmont University,Demorest,GA,United Church of Christ,0.4785535852634022,0.394977307255898,0.4501054346995437,0.4504617374340459,4,425,32599771.372,17322562.483,34.57027745,-83.54171067915166
155089,Friends University,Wichita,KS,Friends,0.3553649626270447,0.5314338881865119,0.5031701585754722,0.4497127802649429,4,426,72196492.467,6062215.051,37.6784007,-97.36542141621248
133809,Florida College,Temple Terrace,FL,Churches of Christ,0.3513940308234589,0.5444302315669208,0.5004167246182949,0.4496208494087703,4,427,35415358.077,12810820.424,28.03446495,-82.38338213326841
154101,Northwestern College,Orange City,IA,Protestant,0.3521734817405856,0.5431795736034993,0.4990792142257461,0.4491472736445433,4,428,87674349.471,13866050.291,42.9994485,-96.0543218266804
190761,Dominican University New York,Orangeburg,NY,Roman Catholic,0.4450662932375273,0.4691337015999286,0.4409743324027668,0.4482397654431001,4,429,13325991.022,13732484.635,41.046393,-73.949816
178244,Missouri Baptist University,Saint Louis,MO,Baptist,0.3381843705040148,0.6413835788235626,0.4615428082356451,0.4481619390272908,4,430,14680189.629,12029497.793,38.6419861,-90.46229806385276
195304,Sarah Lawrence College,Bronxville,NY,Not applicable,0.393496915473152,0.537218431993683,0.4581366071284522,0.4480956512260573,4,431,151033949.814,25235577.265,40.672236,-73.956477
195173,St. Francis College,Brooklyn,NY,Roman Catholic,0.4538670203246609,0.4587732658673381,0.4364038858188453,0.4478590323794147,4,432,9684589.08,62581483.769,40.69306659999999,-73.99220306902977
150756,Hanover College,Hanover,IN,Presbyterian,0.3887441071255854,0.4262886271602715,0.5175759892722964,0.4478077759156329,4,433,165286034.937,50130915.032,38.71651765,-85.46164277066788
150941,Huntington University,Huntington,IN,Anabaptist,0.4133951394700927,0.4971422890044556,0.4572598347638983,0.4476908457185928,4,434,34673941.021,18587717.582,40.89905155,-85.5022118549875
148584,University of St Francis,Joliet,IL,Roman Catholic               ,0.3336797003584641,0.6602505137492849,0.4547113362335783,0.4473980666325099,4,435,32568572.67,13722839.069,41.53393124999999,-88.09735128052655
240338,Wisconsin Lutheran College,Milwaukee,WI,Lutheran,0.4122025705929672,0.4679347758875922,0.4722666277186489,0.4473810740930605,4,436,45523721.949,8872685.402,43.03726535,-88.02194662020278
148131,Quincy University,Quincy,IL,Roman Catholic               ,0.4312059871662104,0.5138262871202113,0.4301679040715989,0.4473063442725517,4,437,19676759.076,9317041.618,39.95544185,-91.38969180343577
199971,Carolina Christian College,Winston Salem,NC,Churches of Christ,0.2480639480238669,0.8433783860980678,0.4457008886170547,0.4461616078202935,4,438,0.0,263499.949,36.1461516,-80.2562112
198756,Johnson C Smith University,Charlotte,NC,Presbyterian,0.4026507378008747,0.3203838581394877,0.5524015053926754,0.4461358457468021,4,439,57254442.975,6081542.98,35.24379475,-80.85543225981756
173160,Bethel University,Saint Paul,MN,Baptist,0.3958091644084205,0.5196292423282667,0.4593679403761979,0.4459970201269022,4,440,102336837.068,29679017.312,44.948616,-93.128015
101693,University of Mobile,Mobile,AL,Baptist,0.4451736395519021,0.4212160045566603,0.4591052655865705,0.4459599450554276,4,441,25355319.679,11786619.364,30.7919746,-88.13124153816352
191630,Hobart William Smith Colleges,Geneva,NY,Episcopal,0.3931359729877049,0.465870787193255,0.4885075902549834,0.4458433835777592,4,442,111698276.99,25042943.716,42.8570498,-76.98719739224848
147679,North Park University,Chicago,IL,Protestant,0.4959291648435802,0.2418151200718429,0.4974036859550008,0.4457218706425004,4,443,138337327.942,-3663316.095,41.97487485,-87.70538274756231
236896,Walla Walla University,College Place,WA,Seventh Day Adventist,0.383591234316651,0.4988454671224532,0.4810268208430062,0.4456242771823782,4,444,51752788.267,15937574.075,46.0464038,-118.3919772447721
198950,Meredith College,Raleigh,NC,Baptist,0.3979299462580381,0.4832750299154655,0.4742412335666337,0.4455302056620578,4,445,152712466.841,20709633.863,35.79821395,-78.68893690156162
181853,York University,York,NE,Churches of Christ,0.2841749804676055,0.7034964175358664,0.4775355828754396,0.4453802488211661,4,446,28165363.676,3810713.394,40.86967774999999,-97.58034078874503
140988,Shorter University,Rome,GA,Baptist,0.4221630137089974,0.4500762957101153,0.4658822360768343,0.4452393115726291,4,447,7788772.699,4817377.063,34.25942875,-85.19527510695326
214069,Misericordia University,Dallas,PA,Roman Catholic               ,0.3654467809530408,0.529249497951239,0.482291232391751,0.4449520935467525,4,448,81530926.057,24899590.782,41.34579835,-75.97183590553288
451398,Yeshiva Toras Chaim,Lakewood,NJ,Jewish,0.2628237732306788,0.3539864485099536,0.6717980911368957,0.4447187140450738,4,449,0.0,2796537.473,40.089909,-74.21627
154004,Morningside University,Sioux City,IA,Methodist,0.3788437129510868,0.523526338009467,0.4709805625178268,0.4446389368968663,4,450,74089017.9,13531243.219,42.479479,-96.362656
167899,Springfield College,Springfield,MA,Not applicable,0.3996643133107085,0.518801636383358,0.4513715502278745,0.4441731004071809,4,451,121427195.675,39135373.368,42.10284205,-72.55671489399984
150604,Franklin College,Franklin,IN,Baptist,0.3871284397456209,0.4862588391775061,0.4798365939966258,0.4440464099233069,4,452,103077723.117,10976268.213,39.47660655,-86.03725773127834
169442,College for Creative Studies,Detroit,MI,Not applicable,0.3878310563394566,0.4740579970480427,0.4847857286858476,0.4438690816601286,4,453,95817210.082,17019611.308,42.36128,-83.06304456769371
230852,Champlain College,Burlington,VT,Not applicable,0.3880628939974645,0.5491384492314582,0.446723864720916,0.4437380179722651,4,454,29060956.129,29156406.112,44.4739064,-73.20327154657234
238333,Beloit College,Beloit,WI,Not applicable,0.3528158772198309,0.5644915548809554,0.4740733945552439,0.443657103621922,4,455,57214172.18,3771550.943,42.5009819,-89.0157777411969
153834,Luther College,Decorah,IA,Lutheran,0.3246578811244498,0.5238288385068214,0.5216000154807743,0.4432883976745869,4,456,228431300.245,14564864.875,43.3169528,-91.79850254143064
165936,Gordon College,Wenham,MA,Interdenominational,0.3459082836092809,0.6144167863492968,0.4550401135997381,0.443257691669191,4,457,127257830.927,16753706.161,42.5888528,-70.8203006
145619,Benedictine University,Lisle,IL,Roman Catholic               ,0.4128175694819591,0.482392298930013,0.4532611879333829,0.4429110940028849,4,458,45961752.833,19846873.458,41.77799760000001,-88.09699355549967
219383,University of Sioux Falls,Sioux Falls,SD,Baptist,0.3648831311867822,0.5167952271278542,0.4837039683161315,0.4428024581845681,4,459,39456242.03,8956121.39,43.5309201,-96.73813259452696
153375,Grand View University,Des Moines,IA,Lutheran,0.3655589072382959,0.5718038404566107,0.4553798691986644,0.4427336183651764,4,460,44247249.718,12593378.214,41.61980315,-93.5988096106748
213251,Juniata College,Huntingdon,PA,Anabaptist,0.3604795136819995,0.5215851543237556,0.4854686687668902,0.4427051911112598,4,461,129579165.752,13455306.403,40.5012255,-78.01516280060704
165529,Curry College,Milton,MA,Not applicable,0.4441470509692453,0.4296787484704993,0.4475909182934925,0.4426330730029097,4,462,68513312.839,18367097.562,42.2378786,-71.114711547038
211981,Delaware Valley University,Doylestown,PA,Not applicable,0.4149289436785858,0.4949189455999823,0.4431068896930808,0.4421957590576738,4,463,41054108.162,16492985.167,40.29314845,-75.15994121447233
188641,Alfred University,Alfred,NY,Baptist,0.3829799018984931,0.4105230691833835,0.516925006121911,0.4420906117489545,4,464,221447605.223,28266264.417,42.255862,-77.7857087052491
215743,Saint Francis University,Loretto,PA,Roman Catholic               ,0.3683325898110569,0.579656804305346,0.4466971131853401,0.4419377825428534,4,465,66492241.758,21857154.003,40.5034672,-78.6382564
157818,Transylvania University,Lexington,KY,Protestant,0.3592702624386861,0.4769518679508838,0.5065064448694082,0.4417187355893494,4,466,157770059.61,10850215.088,38.053107,-84.49398715778406
234173,Virginia Wesleyan University,Virginia Beach,VA,Methodist,0.4029247016611267,0.3765857372215677,0.5111454903469723,0.4409695023017343,4,467,168199556.851,14660029.188,36.86802,-76.1877440355182
441982,Franklin W Olin College of Engineering,Needham,MA,Not applicable,0.2683155954581751,0.5638128904781482,0.5511608336191606,0.4405801690446941,4,468,463549249.441,15120378.725,42.2900134,-71.26080120734075
243823,Parker University,Dallas,TX,Not applicable,0.2614769818465152,0.6577371192330863,0.5110347534139197,0.4405624034913661,4,469,48224790.851,30721278.244,32.8796947,-96.89320493303732
210492,Bryn Athyn College of the New Church,Bryn Athyn,PA,Other,0.2538124531685673,0.366379585193628,0.6633850342167642,0.4402255697958653,4,470,319962385.157,4066624.64,40.13487835,-75.06013469538682
199607,Salem College,Winston-Salem,NC,Not applicable,0.2848896091757018,0.4536056713584342,0.5881841199297451,0.4399944132097981,4,471,59004245.141,677790.268,36.0861216,-80.23981471121351
220613,Lee University,Cleveland,TN,Church of God,0.3655168645791184,0.4625156435316947,0.5017015044263473,0.4394080133585994,4,472,35616229.663,30605734.161,35.1660778,-84.86925196171154
150066,Anderson University,Anderson,IN,Church of God,0.410107712752779,0.4697748338472119,0.4532982767417645,0.4393200339679481,4,473,40147184.087,8713580.891,40.11455395,-85.6607189805517
216667,Washington & Jefferson College,Washington,PA,Roman Catholic,0.3523640165544722,0.5317528067658092,0.4785474715905889,0.4387224544231723,4,474,147129493.059,8397964.259,40.1719209,-80.24134964025063
172264,Siena Heights University,Adrian,MI,Roman Catholic               ,0.3769235498468995,0.5280846883748642,0.4551413062358457,0.4384434075454959,4,475,16896367.564,9715141.346,41.9062844,-84.01796520279541
228468,Southwestern Adventist University,Keene,TX,Seventh Day Adventist,0.3561987450730195,0.4179945333029079,0.5300152258649191,0.4381130787530924,4,476,30543523.603,5089009.997,32.39755805,-97.32821992906278
144971,Eureka College,Eureka,IL,Protestant,0.2960073587231017,0.6234176001129258,0.487475354174665,0.4380821577566431,4,477,36637553.133,3240046.712,40.71304545,-89.26588087495756
201104,Ashland University,Ashland,OH,Anabaptist,0.4074691827282855,0.4266633140756418,0.4742468915447056,0.4380305286529533,4,478,75206269.854,37407690.051,40.86206715,-82.32557737380854
207403,Oklahoma Baptist University,Shawnee,OK,Baptist,0.3634425031693804,0.4284648996967154,0.5170242704813937,0.4379039035134624,4,479,208065709.699,6338864.695,35.36446295,-96.93385103279996
245953,Mid-America Christian University,Oklahoma City,OK,Church of God,0.3004039872213884,0.6937912810991311,0.4474031637250916,0.4378711777043311,4,480,4364190.92,5200898.33,35.3467159,-97.57847646028875
213668,Lycoming College,Williamsport,PA,Methodist,0.3372215995286743,0.4451491578389449,0.5347061712351003,0.4378296440318091,4,481,165765636.272,16098097.131,41.2454429,-76.99988254888089
215798,Saint Vincent College,Latrobe,PA,Roman Catholic               ,0.3100202754142289,0.5290123184304221,0.5189901459753611,0.437426527011731,4,482,161801010.27,22313584.734,40.291112,-79.400714
173142,Bethany Lutheran College,Mankato,MN,Lutheran,0.3494108204690343,0.4768669893179986,0.5042085309311279,0.4368393523488721,4,483,54118396.307,9940935.023,44.16674125,-93.99104281930204
133526,Edward Waters University,Jacksonville,FL,Methodist,0.4696460892917329,0.3377021318660251,0.4535363173569967,0.4368233614740524,4,484,1680649.0,2274417.473,30.34419595,-81.68356941956846
156189,Alice Lloyd College,Pippa Passes,KY,Not applicable,0.2957130789614396,0.3094129207004349,0.6402870447014471,0.4363501784142158,4,485,69414111.092,3517761.832,37.3362011,-82.87339228684898
145372,Greenville University,Greenville,IL,Methodist,0.3255617868404858,0.6857413128669286,0.422073607965674,0.436185704907472,4,486,32434902.025,4365079.129,38.89648605,-89.41250813892516
199272,William Peace University,Raleigh,NC,Presbyterian,0.3729686840081777,0.4951607491298403,0.469218924347763,0.4359142240099001,4,487,42727479.414,4323001.602,35.7895729,-78.63722585982836
192864,Marymount Manhattan College,New York,NY,Roman Catholic,0.4532312569160653,0.3634165663981389,0.4537544247326047,0.4354866720417109,4,488,33134238.345,20995282.477,40.76893065,-73.959696351204
147341,Monmouth College,Monmouth,IL,Presbyterian,0.3189763583090494,0.4966788511176125,0.5212440701473808,0.4354466248991814,4,489,136529838.578,11433797.71,40.9144918,-90.63839026946084
239309,Milwaukee Institute of Art & Design,Milwaukee,WI,Not applicable,0.3358119147205655,0.5634857152613864,0.4708237043310963,0.43535562565081,4,490,3858929.137,13405167.483,43.03129575,-87.90830599188746
198969,Methodist University,Fayetteville,NC,Methodist,0.4286124502708903,0.3684292129137643,0.4751531067236316,0.4352073918355879,4,491,73000744.836,17253272.847,35.13408025,-78.87242991721607
141185,Toccoa Falls College,Toccoa Falls,GA,Evangelical Christian,0.3965547721570646,0.4970864485617349,0.4417353580179528,0.4347323247318856,4,492,4440957.503,7145380.991,34.5937089,-83.35634657362554
237358,Davis & Elkins College,Elkins,WV,Presbyterian,0.2939222874784656,0.4022913451758462,0.5911808497146246,0.4345481387190828,4,493,71626176.208,7776806.354,38.93325345,-79.84355971087138
181127,Hastings College,Hastings,NE,Presbyterian,0.3887304393284468,0.4649258091292408,0.4651103668798462,0.4345291407576956,4,494,107182295.274,6966018.654,40.5943839,-98.36549671078184
216524,Ursinus College,Collegeville,PA,Not applicable,0.3909416907150133,0.4544945652380004,0.467826113881881,0.4344150564835388,4,495,159275253.277,23398680.201,40.1917705,-75.4568484
168786,Aquinas College,Grand Rapids,MI,Roman Catholic               ,0.3736845209532139,0.5378322713204149,0.4430694740850337,0.4342655144949716,4,496,49345463.783,9716755.181,42.9597531,-85.62498744066667
140252,Life University,Marietta,GA,Not applicable,0.4004331140768747,0.5019996072398532,0.4335900246299309,0.4340056516634871,4,497,5682515.938,24911057.524,33.9311113,-84.51740878177948
235024,Cornish College of the Arts,Seattle,WA,Not applicable,0.4134977257832148,0.3503841525835579,0.4958299154420226,0.4338306648020582,4,498,13273055.254,613237.034,47.61680045,-122.33586595
206862,Southern Nazarene University,Bethany,OK,Protestant,0.369732391274858,0.4978485408421511,0.4654669165571923,0.4336557665913501,4,499,56401621.176,15843836.805,35.5138091,-97.62930068685996
153162,Cornell College,Mount Vernon,IA,Methodist,0.3775371028378942,0.4450122087644216,0.4836156694776593,0.433478018881841,4,500,103368586.672,13908222.787,41.9253978,-91.42398552745183
158802,Dillard University,New Orleans,LA,Methodist,0.3158339557442339,0.4950160936474167,0.5186331122320491,0.4328126875375038,4,501,98509467.15,8303368.133,29.9962374,-90.0653677710487
153302,Emmaus Bible College,Dubuque,IA,Anabaptist,0.2490112743409632,0.6059562667781844,0.5297900735021323,0.4327322537534636,4,502,1349244.905,1844016.478,42.5087374,-90.7060749086276
199032,Montreat College,Montreat,NC,Interdenominational,0.3363830061449228,0.4633027711595903,0.5136370128341501,0.4326913206483836,4,503,10885516.189,7208706.106,35.6459434,-82.2970364
210331,Corban University,Salem,OR,Baptist,0.288804439050833,0.6210183211210436,0.4823215638027324,0.4326595474023782,4,504,1336877.258,4312461.968,36.099447,-80.22659
216807,Westminster College,New Wilmington,PA,Presbyterian,0.335481212175074,0.5032588314874561,0.4942095633985648,0.4325430444352601,4,505,152265258.407,12155389.312,41.1182434,-80.32868957389215
197221,Webb Institute,Glen Cove,NY,Not applicable,0.2419229425342715,0.5935775807546129,0.5415271891340199,0.432120324203737,4,506,21167356.575,3846713.106,40.8844868,-73.64476966947441
481225,Mid-South Christian College,Memphis,TN,Protestant,0.2343985864855399,0.7493628600191139,0.4707211950185214,0.4319162526998006,4,507,176931.462,71271.407,35.064191,-89.911893
168591,Alma College,Alma,MI,Presbyterian,0.3915692594270074,0.4281645651719705,0.4739980214759134,0.4318726516173977,4,508,153669051.801,33142429.646,43.38147395,-84.6713490300015
