InstitutionID,University,City,State,Religion,Market_Saturation_Percentile,Academic_Efficiency_Percentile,aCFI_Percentile,Survivability,FullAddress,lat,lon,Quantile_Label,Quantile_Group,Rank,Universities_in_State,Endowment,Net Assets
114813,Fresno Pacific University,Fresno,CA,Anabaptist,0.3336,0.5474,0.4876,0.43796,"Fresno Pacific University, Fresno, CA",36.72601005,-119.7341901041148,Stable,3,496,30,21720486.097,77542772.038
150668,Goshen College,Goshen,IN,Anabaptist,0.3379999999999999,0.4004999999999999,0.4067,0.37799,"Goshen College, Goshen, IN",41.56248295,-85.82522495563299,Critical,0,776,23,149820246.672,218004435.977
150941,Huntington University,Huntington,IN,Anabaptist,0.427,0.42,0.494,0.45242,"Huntington University, Huntington, IN",40.89905155,-85.5022118549875,Secure,4,418,23,34673941.021,70698289.685
151777,Manchester University,North Manchester,IN,Anabaptist,0.3703,0.4118,0.5056,0.4327499999999999,"Manchester University, North Manchester, IN",41.01177555,-85.76000953742776,Stable,3,521,23,85720776.868,145207221.612
153302,Emmaus Bible College,Dubuque,IA,Anabaptist,0.2559,0.392,0.6628000000000001,0.44597,"Emmaus Bible College, Dubuque, IA",42.5087374,-90.7060749086276,Stable,3,447,25,1349244.905,13188276.497
155177,Hesston College,Hesston,KS,Anabaptist,0.2723,0.3897,0.964,0.57264,"Hesston College, Hesston, KS",38.13468465,-97.43391833739682,Strong,6,146,17,17468889.166,51432811.778
155511,McPherson College,McPherson,KS,Anabaptist,0.3449,0.4021,0.9049,0.5805,"McPherson College, McPherson, KS",38.37222595,-97.64194995634703,Strong,6,139,17,2330285173.661,3862847276.49
155973,Tabor College,Hillsboro,KS,Anabaptist,0.2929,0.3901,0.5211,0.40367,"Tabor College, Hillsboro, KS",38.34564655,-97.19974490220972,At-Risk,1,660,17,29735159.452,78134966.851
201104,Ashland University,Ashland,OH,Anabaptist,0.4207,0.5422,0.4996,0.47656,"Ashland University, Ashland, OH",40.86206715,-82.32557737380854,Secure,4,325,46,75206269.854,256201774.167
201371,Bluffton University,Bluffton,OH,Anabaptist,0.3068,0.3874,0.5108,0.40457,"Bluffton University, Bluffton, OH",40.8965715,-83.89964803548409,At-Risk,1,658,46,24960838.338,57105648.114
211291,Bucknell University,Lewisburg,PA,Anabaptist,0.6901,0.4956,0.5215,0.58375,"Bucknell University, Lewisburg, PA",40.9588852,-76.88191282447514,Strong,6,135,51,1328672194.564,1685427097.347
213251,Juniata College,Huntingdon,PA,Anabaptist,0.3722,0.4157,0.5004,0.43221,"Juniata College, Huntingdon, PA",40.5012255,-78.01516280060704,Stable,3,526,51,129579165.752,171196383.537
231581,Bridgewater College,Bridgewater,VA,Anabaptist,0.4602,0.4222999999999999,0.5004,0.46872,"Bridgewater College, Bridgewater, VA",38.3772626,-78.96809814655431,Secure,4,356,22,114186929.741,155135904.323
232043,Eastern Mennonite University,Harrisonburg,VA,Anabaptist,0.3242,0.4203,0.5211,0.42222,"Eastern Mennonite University, Harrisonburg, VA",38.47216285,-78.87794515329837,Vulnerable,2,578,22,49620331.546,98633381.496
101693,University of Mobile,Mobile,AL,Baptist,0.4598,0.4192,0.4932,0.46506,"University of Mobile, Mobile, AL",30.7919746,-88.13124153816352,Secure,4,373,11,25355319.679,50660170.556
102049,Samford University,Birmingham,AL,Baptist,0.9307,0.6156,0.4952,0.69341,"Samford University, Birmingham, AL",,,Elite,7,75,11,490041746.4,550385456.079
106306,Arkansas Baptist College,Little Rock,AR,Baptist,0.2392,0.3677,0.4852,0.36335,"Arkansas Baptist College, Little Rock, AR",34.7349723,-92.2898356068249,Critical,0,823,7,0.0,91673010.031
107512,Ouachita Baptist University,Arkadelphia,AR,Baptist,0.4301,0.429,0.5036,0.4593,"Ouachita Baptist University, Arkadelphia, AR",34.1307617,-93.05250677656252,Secure,4,392,7,151340751.651,184111722.769
110361,California Baptist University,Riverside,CA,Baptist,0.8421,0.8806,0.4868,0.70757,"California Baptist University, Riverside, CA",33.9283239,-117.4259206205848,Elite,7,68,30,200790654.859,386591138.979
133979,Florida Memorial University,Miami Gardens,FL,Baptist,0.5948,0.3943,0.4809,0.50915,"Florida Memorial University, Miami Gardens, FL",25.9175201,-80.27068544105553,Healthy,5,245,30,8702986.563,89701715.086
137953,Trinity Baptist College,Jacksonville,FL,Baptist,0.3032999999999999,0.3821,0.4852,0.39186,"Trinity Baptist College, Jacksonville, FL",,,At-Risk,1,727,30,0.0,4465285.643
139205,Brewton-Parker College,Mount Vernon,GA,Baptist,0.4309,0.3829,0.4785,0.44036,"Brewton-Parker College, Mount Vernon, GA",32.18538895796868,-82.58347271164341,Stable,3,481,26,9007040.303,40217632.009
140447,Mercer University,Macon,GA,Baptist,0.9579,0.7467,0.496,0.7308,"Mercer University, Macon, GA",32.8289341,-83.65067020582131,Elite,7,52,26,596820645.75,824809847.413
140553,Morehouse College,Atlanta,GA,Baptist,0.8568000000000001,0.4396,0.3078,0.5536800000000001,"Morehouse College, Atlanta, GA",33.74737405,-84.41609506200462,Strong,6,161,26,292320362.64,551769748.721
140988,Shorter University,Rome,GA,Baptist,0.436,0.4118,0.5004,0.45694,"Shorter University, Rome, GA",34.25942875,-85.19527510695326,Secure,4,403,26,7788772.699,49254285.887
146339,Judson University,Elgin,IL,Baptist,0.3314,0.4153,0.4852,0.40973,"Judson University, Elgin, IL",42.0609055,-88.29150749046332,At-Risk,1,637,42,11348072.443,16514643.79
150604,Franklin College,Franklin,IN,Baptist,0.3997,0.4052,0.502,0.44175,"Franklin College, Franklin, IN",39.47660655,-86.03725773127834,Stable,3,472,23,103077723.117,121435558.448
153320,Faith Baptist Bible College and Theological Seminary,Ankeny,IA,Baptist,0.3082,0.3886,0.5015999999999999,0.40168,"Faith Baptist Bible College and Theological Seminary, Ankeny, IA",,,At-Risk,1,671,25,9825859.626,17218718.966
155627,Ottawa University-Ottawa,Ottawa,KS,Baptist,0.3568,0.3917,0.4821,0.41393,"Ottawa University-Ottawa, Ottawa, KS",38.60293695,-95.2638028645363,Vulnerable,2,617,17,21732384.542,38812247.292
156541,University of the Cumberlands,Williamsburg,KY,Baptist,0.5921,0.9906,0.4594,0.6186,"University of the Cumberlands, Williamsburg, KY",36.73674315,-84.16286166961402,Strong,6,110,16,502981178.591,777729655.667
156745,Georgetown College,Georgetown,KY,Baptist,0.3943,0.4168,0.4852,0.43518,"Georgetown College, Georgetown, KY",38.20692074999999,-84.55403434882237,Stable,3,508,16,25877895.685,35311738.275
159568,Louisiana Christian University,Pineville,LA,Baptist,0.3107,0.409,0.5064,0.40868,"Louisiana Christian University, Pineville, LA",31.3235321,-92.4258488256772,At-Risk,1,640,8,50376238.695,97883922.51
160977,Bates College,Lewiston,ME,Baptist,0.42,0.442,0.5104,0.46058,"Bates College, Lewiston, ME",44.10656935,-70.20282870728443,Secure,4,386,9,538171251.941,762928090.364
173160,Bethel University,Saint Paul,MN,Baptist,0.4086999999999999,0.4952,0.4932,0.45981,"Bethel University, Saint Paul, MN",,,Secure,4,388,23,102336837.068,156586967.915
173160,Bethel University,Saint Paul,MN,Baptist,0.4086999999999999,0.4952,0.4932,0.45981,"Bethel University, Saint Paul, MN",,,Secure,4,388,23,12855674.236,41224846.036
173160,Bethel University,Saint Paul,MN,Baptist,0.4086999999999999,0.4952,0.4932,0.45981,"Bethel University, Saint Paul, MN",,,Secure,4,388,23,11368919.048,34511235.245
176053,Mississippi College,Clinton,MS,Baptist,0.5438000000000001,0.5632,0.5056,0.53238,"Mississippi College, Clinton, MS",32.3354174,-90.33188238452227,Strong,6,191,6,90335905.662,244860710.34
176336,Southeastern Baptist College,Laurel,MS,Baptist,0.2464,0.409,0.486,0.3747999999999999,"Southeastern Baptist College, Laurel, MS",,,Critical,0,792,6,0.0,1440768.54
176479,William Carey University,Hattiesburg,MS,Baptist,0.3576,0.5706,0.5032,0.45844,"William Carey University, Hattiesburg, MS",31.3037101,-89.29276386549502,Secure,4,396,6,42625004.452,208753286.677
177542,Hannibal-LaGrange University,Hannibal,MO,Baptist,0.23,0.3886,0.5628,0.39491,"Hannibal-LaGrange University, Hannibal, MO",39.73271775000001,-91.39100114558696,At-Risk,1,716,29,5152412.609,17723564.401
178244,Missouri Baptist University,Saint Louis,MO,Baptist,0.349,0.4451,0.4947999999999999,0.42656,"Missouri Baptist University, Saint Louis, MO",38.6419861,-90.46229806385276,Vulnerable,2,559,29,14680189.629,67710684.824
179326,Southwest Baptist University,Bolivar,MO,Baptist,0.2786,0.4546,0.5004,0.40255,"Southwest Baptist University, Bolivar, MO",37.60076005000001,-93.40873074472032,At-Risk,1,665,29,46980244.95,72284996.49
188641,Alfred University,Alfred,NY,Baptist,0.3954999999999999,0.455,0.5215,0.45783,"Alfred University, Alfred, NY",42.255862,-77.7857087052491,Secure,4,399,75,221447605.223,392618060.13
192192,Keuka College,Keuka Park,NY,Baptist,0.2987,0.4160999999999999,0.4916,0.39937,"Keuka College, Keuka Park, NY",42.6147014,-77.08995736319191,At-Risk,1,691,75,19625986.253,42275999.634
196866,Union College,Schenectady,NY,Baptist,0.4664999999999999,0.436,0.4996,0.4736599999999999,"Union College, Schenectady, NY",42.8175752,-73.92839165453219,Secure,4,335,75,34318226.734,56893240.579
196866,Union College,Schenectady,NY,Baptist,0.4664999999999999,0.436,0.4996,0.4736599999999999,"Union College, Schenectady, NY",42.8175752,-73.92839165453219,Secure,4,335,75,34318226.724,56893237.636
198136,Campbell University,Buies Creek,NC,Baptist,0.4928,0.5797,0.4952,0.51112,"Campbell University, Buies Creek, NC",35.408071,-78.73924679769573,Healthy,5,242,35,214420609.208,510941043.434
198303,Chowan University,Murfreesboro,NC,Baptist,0.2816,0.4013,0.5215,0.40155,"Chowan University, Murfreesboro, NC",36.4340869,-77.09650067197137,At-Risk,1,675,35,27518359.914,92093285.128
198561,Gardner-Webb University,Boiling Springs,NC,Baptist,0.5497,0.4765,0.5015999999999999,0.5158200000000001,"Gardner-Webb University, Boiling Springs, NC",35.24782945,-81.67023803083481,Healthy,5,233,35,76768195.489,129095267.13
198899,Mars Hill University,Mars Hill,NC,Baptist,0.4175999999999999,0.4044,0.498,0.44715,"Mars Hill University, Mars Hill, NC",35.827147,-82.5529516616329,Stable,3,442,35,71943555.512,92657921.056
198950,Meredith College,Raleigh,NC,Baptist,0.411,0.4475,0.5004,0.45408,"Meredith College, Raleigh, NC",35.79821395,-78.68893690156162,Secure,4,412,35,152712466.841,181555514.461
199069,University of Mount Olive,Mount Olive,NC,Baptist,0.4086999999999999,0.4416,0.2364,0.3463,"University of Mount Olive, Mount Olive, NC",35.20585095,-78.06997857195825,Critical,0,839,35,32190352.02,108966636.803
199643,Shaw University,Raleigh,NC,Baptist,0.2783,0.4075,0.494,0.39046,"Shaw University, Raleigh, NC",35.77076885,-78.63697923267378,At-Risk,1,732,35,17549822.356,52886229.746
199962,Wingate University,Wingate,NC,Baptist,0.7044,0.4928,0.4936,0.57774,"Wingate University, Wingate, NC",34.9871011,-80.43731492196923,Strong,6,142,35,155392138.056,234537537.851
201654,Cedarville University,Cedarville,OH,Baptist,0.7334,0.516,0.5036,0.59797,"Cedarville University, Cedarville, OH",39.7540491,-83.81705182918216,Strong,6,125,46,56920085.868,416593059.796
207157,Randall University,Moore,OK,Baptist,0.2736,0.3813,0.4904,0.3818999999999999,"Randall University, Moore, OK",,,Critical,0,759,7,555291.987,4578314.591
207403,Oklahoma Baptist University,Shawnee,OK,Baptist,0.3752,0.4243,0.5136,0.4404099999999999,"Oklahoma Baptist University, Shawnee, OK",35.36446295,-96.93385103279996,Stable,3,480,7,208065709.699,322659034.141
209065,Linfield University,McMinnville,OR,Baptist,0.4036,0.4431,0.5108,0.4543999999999999,"Linfield University, McMinnville, OR",45.1984734,-123.1981383587192,Secure,4,411,11,100128289.63,287321815.701
210331,Corban University,Salem,OR,Baptist,0.2974,0.4211,0.5335,0.4166299999999999,"Corban University, Salem, OR",,,Vulnerable,2,601,11,1336877.258,24467942.101
217633,Anderson University,Anderson,SC,Baptist,0.8531,0.5243,0.9968,0.84493,"Anderson University, Anderson, SC",34.51478935,-82.63874687710373,Elite,7,2,19,30777700.896,202568222.119
217633,Anderson University,Anderson,SC,Baptist,0.8531,0.5243,0.9968,0.84493,"Anderson University, Anderson, SC",34.51478935,-82.63874687710373,Elite,7,2,19,40147184.087,69708298.057
217688,Charleston Southern University,Charleston,SC,Baptist,0.7123,0.4760999999999999,0.4943999999999999,0.57788,"Charleston Southern University, Charleston, SC",32.9826445,-80.07109661611514,Strong,6,141,19,33920979.729,164119239.801
217721,Benedict College,Columbia,SC,Baptist,0.2998,0.4028,0.5104,0.40468,"Benedict College, Columbia, SC",34.01396275,-81.02097288919151,At-Risk,1,657,19,23997287.368,146776806.224
218399,Morris College,Sumter,SC,Baptist,0.2709,0.3809,0.5588000000000001,0.40812,"Morris College, Sumter, SC",33.9383314,-80.34700051878013,At-Risk,1,644,19,14455073.784,44184489.044
218441,North Greenville University,Tigerville,SC,Baptist,0.498,0.4435,0.5235,0.49732,"North Greenville University, Tigerville, SC",35.070227,-82.37443307070124,Healthy,5,272,19,30956213.269,115013807.707
219383,University of Sioux Falls,Sioux Falls,SD,Baptist,0.3768,0.4376,0.5044,0.44003,"University of Sioux Falls, Sioux Falls, SD",43.5309201,-96.73813259452696,Stable,3,484,4,39456242.03,80564156.801
219505,American Baptist College,Nashville,TN,Baptist,0.2367,0.3749,0.4871999999999999,0.36459,"American Baptist College, Nashville, TN",36.2022777,-86.7902765,Critical,0,818,28,569590.488,7872118.087
219639,Baptist Health Sciences University,Memphis,TN,Baptist,0.2339,0.4013,0.5164,0.38043,"Baptist Health Sciences University, Memphis, TN",35.13653725,-90.02616776188766,Critical,0,767,28,135827700.113,98863733.351
219806,Carson-Newman University,Jefferson City,TN,Baptist,0.3527,0.498,0.5044,0.44246,"Carson-Newman University, Jefferson City, TN",36.12206325,-83.4893262980502,Stable,3,467,28,70816811.484,141679623.991
220206,Welch College,Gallatin,TN,Baptist,0.2693,0.3882,0.4936,0.38284,"Welch College, Gallatin, TN",,,Critical,0,756,28,5741961.174,21323342.194
221971,Union University,Jackson,TN,Baptist,0.3829,0.4669,0.5893999999999999,0.48235,"Union University, Jackson, TN",35.67712415,-88.86094997728624,Healthy,5,307,28,64660110.267,222563250.924
223232,Baylor University,Waco,TX,Baptist,0.9987,0.9525,0.5124,0.7948000000000001,"Baylor University, Waco, TX",31.55043405,-97.1102905567766,Elite,7,14,31,2319964085.559,3769239200.629
224226,Dallas Baptist University,Dallas,TX,Baptist,0.843,0.4749,0.5398,0.6480800000000001,"Dallas Baptist University, Dallas, TX",32.7108312,-96.946767972549,Elite,7,92,31,82425316.968,230082643.666
224527,East Texas Baptist University,Marshall,TX,Baptist,0.58,0.425,0.4968,0.51573,"East Texas Baptist University, Marshall, TX",32.55795265,-94.37511342798528,Healthy,5,234,31,38381286.655,141689028.371
225247,Hardin-Simmons University,Abilene,TX,Baptist,0.573,0.4454999999999999,0.5112,0.5227900000000001,"Hardin-Simmons University, Abilene, TX",32.4777117,-99.73415759382408,Healthy,5,213,31,279106314.498,406114663.867
225399,Houston Christian University,Houston,TX,Baptist,0.8853,0.5183,0.4968,0.65646,"Houston Christian University, Houston, TX",,,Elite,7,87,31,144351765.743,294078741.85
225548,Howard Payne University,Brownwood,TX,Baptist,0.3775,0.3893999999999999,0.5549000000000001,0.45089,"Howard Payne University, Brownwood, TX",31.71642025,-98.98631404578038,Stable,3,422,31,51052205.371,146909887.212
226471,University of Mary Hardin-Baylor,Belton,TX,Baptist,0.8976000000000001,0.4924,0.4118,0.6221800000000001,"University of Mary Hardin-Baylor, Belton, TX",31.06868225,-97.46482937242428,Elite,7,106,31,144510282.54,423503452.788
231420,Averett University,Danville,VA,Baptist,0.3832,0.4305,0.4829,0.43256,"Averett University, Danville, VA",36.5789301,-79.41452051628477,Stable,3,522,22,22791309.261,29476443.318
231554,Bluefield University,Bluefield,VA,Baptist,0.3068,0.4266,0.5259,0.41844,"Bluefield University, Bluefield, VA",37.24510425,-81.24800239953215,Vulnerable,2,595,22,2495765.492,17141955.1
234164,Virginia Union University,Richmond,VA,Baptist,0.4847999999999999,0.3997,0.4947999999999999,0.4718,"Virginia Union University, Richmond, VA",37.5617598,-77.45105977399695,Secure,4,343,22,27247024.571,78018235.14
237136,Appalachian Bible College,Mount Hope,WV,Baptist,0.2627,0.3843999999999999,0.5052,0.38409,"Appalachian Bible College, Mount Hope, WV",37.85492139999999,-81.20494954511202,Critical,0,749,6,2041796.187,12642667.428
239071,Maranatha Baptist University,Watertown,WI,Baptist,0.2956,0.4063,0.4968,0.39826,"Maranatha Baptist University, Watertown, WI",43.19591645,-88.74001639641634,At-Risk,1,697,18,2122886.172,18627841.783
475608,Criswell College,Dallas,TX,Baptist,0.2505,0.3848,0.5012,0.3776899999999999,"Criswell College, Dallas, TX",32.79311725,-96.777051129858,Critical,0,777,31,10507851.206,12152275.061
482228,Veritas Baptist College,Lawrenceburg,IN,Baptist,0.2507999999999999,0.3832,0.4793,0.36872,"Veritas Baptist College, Lawrenceburg, IN",,,Critical,0,812,23,0.0,1260.123
150066,Anderson University,Anderson,IN,Church of God,0.4235,0.4013,0.49,0.4456799999999999,"Anderson University, Anderson, IN",40.11455395,-85.6607189805517,Stable,3,450,23,30777700.896,202568222.119
150066,Anderson University,Anderson,IN,Church of God,0.4235,0.4013,0.49,0.4456799999999999,"Anderson University, Anderson, IN",40.11455395,-85.6607189805517,Stable,3,450,23,40147184.087,69708298.057
153250,Dordt University,Sioux Center,IA,Church of God,0.4740999999999999,0.4341,0.51,0.48048,"Dordt University, Sioux Center, IA",43.08066095,-96.16404679319116,Healthy,5,316,25,76366256.958,222948244.432
202763,The University of Findlay,Findlay,OH,Church of God,0.5418,0.4681,0.4936,0.50778,"The University of Findlay, Findlay, OH",40.9520749,-83.65536133422265,Healthy,5,250,46,66784971.941,191087937.421
210304,Warner Pacific University,Portland,OR,Church of God,0.2324,0.3913,0.4817,0.36394,"Warner Pacific University, Portland, OR",45.5062805,-122.5933849442156,Critical,0,820,11,4447077.398,14590173.063
220613,Lee University,Cleveland,TN,Church of God,0.3771,0.5168,0.5235,0.46362,"Lee University, Cleveland, TN",35.1660778,-84.86925196171154,Secure,4,376,28,35616229.663,175704583.593
245953,Mid-America Christian University,Oklahoma City,OK,Church of God,0.3096,0.4384,0.494,0.40915,"Mid-America Christian University, Oklahoma City, OK",35.3467159,-97.57847646028875,At-Risk,1,639,7,4364190.92,35973421.372
101189,Faulkner University,Montgomery,AL,Churches of Christ,0.365,0.4852,0.4884,0.43841,"Faulkner University, Montgomery, AL",32.3854781,-86.21710609904724,Stable,3,494,11,22415312.902,58114336.828
106810,Crowley's Ridge College,Paragould,AR,Churches of Christ,0.254,0.3775,0.4847999999999999,0.37106,"Crowley's Ridge College, Paragould, AR",,,Critical,0,805,7,1264728.822,2572047.292
121150,Pepperdine University,Malibu,CA,Churches of Christ,0.6376,0.8351999999999999,0.5012,0.6224799999999999,"Pepperdine University, Malibu, CA",34.04301030000001,-118.7093458932893,Elite,7,105,30,1352840941.697,2039289952.555
133809,Florida College,Temple Terrace,FL,Churches of Christ,0.3624,0.4067,0.5246999999999999,0.43622,"Florida College, Temple Terrace, FL",28.03446495,-82.38338213326841,Stable,3,504,30,35415358.077,91785601.569
170967,Rochester University,Rochester Hills,MI,Churches of Christ,0.3424,0.4025,0.4821,0.41033,"Rochester University, Rochester Hills, MI",42.66870805,-83.1435408514073,At-Risk,1,633,24,1247972.92,8228428.5
181543,Summit Christian College,Gering,NE,Churches of Christ,0.2364,0.3768,0.5024000000000001,0.37093,"Summit Christian College, Gering, NE",41.8293566,-103.6757197,Critical,0,806,11,127008.787,766649.226
181853,York University,York,NE,Churches of Christ,0.2925,0.3997,0.5015999999999999,0.39762,"York University, York, NE",40.86967774999999,-97.58034078874503,At-Risk,1,703,11,28165363.676,50548447.712
199971,Carolina Christian College,Winston Salem,NC,Churches of Christ,0.2548999999999999,0.3897,0.4892,0.3756199999999999,"Carolina Christian College, Winston Salem, NC",36.1461516,-80.2562112,Critical,0,786,35,0.0,1236620.443
207324,Oklahoma Christian University,Edmond,OK,Churches of Christ,0.3639,0.4451,0.4972,0.43348,"Oklahoma Christian University, Edmond, OK",,,Stable,3,518,7,66508111.676,88437162.19
219976,Lipscomb University,Nashville,TN,Churches of Christ,0.6420999999999999,0.5943999999999999,0.486,0.57008,"Lipscomb University, Nashville, TN",36.10507165,-86.79864091820343,Strong,6,149,28,122667623.6,217858144.321
220215,Freed-Hardeman University,Henderson,TN,Churches of Christ,0.2663,0.4503,0.514,0.40222,"Freed-Hardeman University, Henderson, TN",35.43981645,-88.63662784873422,At-Risk,1,668,28,99443641.763,190166030.473
222178,Abilene Christian University,Abilene,TX,Churches of Christ,0.9099,0.5318999999999999,0.5104,0.67446,"Abilene Christian University, Abilene, TX",32.4699728,-99.70735954838815,Elite,7,83,31,966154256.423,1108270302.652
130590,Trinity College,Hartford,CT,Episcopal,0.6259,0.4451,0.5183,0.5467,"Trinity College, Hartford, CT",41.74715485,-72.69011994734595,Strong,6,173,14,978344156.189,1086557301.718
180832,Clarkson College,Omaha,NE,Episcopal,0.2498,0.4254,0.5032,0.38632,"Clarkson College, Omaha, NE",41.25937365,-95.97542659744732,Critical,0,745,11,6250224.204,40230250.592
189088,Bard College,Annandale-On-Hudson,NY,Episcopal,0.3978,0.4594,0.4769,0.44177,"Bard College, Annandale-On-Hudson, NY",42.0225482,-73.91072422119606,Stable,3,471,75,527392686.804,304437507.653
191630,Hobart William Smith Colleges,Geneva,NY,Episcopal,0.4059,0.4321,0.5044,0.4505599999999999,"Hobart William Smith Colleges, Geneva, NY",42.8570498,-76.98719739224848,Stable,3,425,75,111698276.99,404185939.785
221519,The University of the South,Sewanee,TN,Episcopal,0.4614,0.4388,0.5303,0.48447,"The University of the South, Sewanee, TN",35.20440405,-85.91895058826586,Healthy,5,298,28,547751685.405,834076400.942
141185,Toccoa Falls College,Toccoa Falls,GA,Evangelical Christian,0.4094,0.4009,0.4507,0.42423,"Toccoa Falls College, Toccoa Falls, GA",34.5937089,-83.35634657362554,Vulnerable,2,569,26,4440957.503,53064648.407
174862,Crown College,Saint Bonifacius,MN,Evangelical Christian,0.3854999999999999,0.4239,0.49,0.435,"Crown College, Saint Bonifacius, MN",44.88413435,-93.74256433121,Stable,3,510,23,12491070.895,36764359.331
150455,Earlham College,Richmond,IN,Friends,0.3527,0.4048,0.514,0.42768,"Earlham College, Richmond, IN",39.8204275,-84.91323124235393,Vulnerable,2,550,23,361551406.044,243757782.782
154590,William Penn University,Oskaloosa,IA,Friends,0.3851,0.3997,0.4871999999999999,0.42889,"William Penn University, Oskaloosa, IA",41.3117756,-92.64894045918444,Vulnerable,2,544,25,11637740.67,49317333.512
155089,Friends University,Wichita,KS,Friends,0.3666,0.429,0.545,0.45048,"Friends University, Wichita, KS",37.6784007,-97.36542141621248,Stable,3,427,17,72196492.467,115717686.289
203775,Malone University,Canton,OH,Friends,0.2981,0.4102,0.498,0.40052,"Malone University, Canton, OH",40.8265967,-81.37980061905188,At-Risk,1,683,46,26621585.039,45837863.711
206507,Wilmington College,Wilmington,OH,Friends,0.3145,0.4097999999999999,0.5036,0.40924,"Wilmington College, Wilmington, OH",39.441677,-83.81731600752089,At-Risk,1,638,46,28680526.591,107894667.022
208822,George Fox University,Newberg,OR,Friends,0.5611999999999999,0.5482,0.4964,0.53266,"George Fox University, Newberg, OR",45.3038562,-122.9665911824416,Strong,6,190,11,34297851.568,225323857.985
105899,Arizona Christian University,Glendale,AZ,Interdenominational,0.6334000000000001,0.4009,0.4832,0.5268200000000001,"Arizona Christian University, Glendale, AZ",33.62261334999999,-112.1826058201733,Strong,6,199,2,1208834.35,20753681.335
107141,John Brown University,Siloam Springs,AR,Interdenominational,0.3917,0.4337,0.5576,0.4664999999999999,"John Brown University, Siloam Springs, AR",36.19083695,-94.55957189163512,Secure,4,365,7,189082998.262,316154595.68
110097,Biola University,La Mirada,CA,Interdenominational,0.6171,0.5335,0.4936,0.55096,"Biola University, La Mirada, CA",33.90686,-118.0152171906512,Strong,6,165,30,117098515.092,336894672.326
123165,Scripps College,Claremont,CA,Interdenominational,0.3797999999999999,0.4153,0.5251,0.44506,"Scripps College, Claremont, CA",34.10391835,-117.7093442200858,Stable,3,453,30,620597160.654,774457816.428
126669,Colorado Christian University,Lakewood,CO,Interdenominational,0.5231,0.5863,0.4844,0.52024,"Colorado Christian University, Lakewood, CO",39.7129396,-105.0952693636912,Healthy,5,222,5,13890359.104,137754561.493
129525,University of Hartford,West Hartford,CT,Interdenominational,0.9514,0.6122,0.488,0.69813,"University of Hartford, West Hartford, CT",41.8002648,-72.71412054842195,Elite,7,72,14,213098795.409,198085782.025
130794,Yale University,New Haven,CT,Interdenominational,0.9884,0.9072,0.5521,0.79753,"Yale University, New Haven, CT",41.3135727,-72.9231731,Elite,7,11,14,50681474134.498,56397749834.816
132657,Lynn University,Boca Raton,FL,Interdenominational,0.8215,0.4976,0.4904,0.62425,"Lynn University, Boca Raton, FL",26.3837711,-80.12540276819502,Elite,7,103,30,41181258.704,146317352.785
134945,Jacksonville University,Jacksonville,FL,Interdenominational,0.8084,0.5219,0.4844,0.62146,"Jacksonville University, Jacksonville, FL",30.3537227,-81.60730605405212,Strong,6,107,30,73907909.018,113709220.349
136330,Palm Beach Atlantic University,West Palm Beach,FL,Interdenominational,0.7719,0.4637,0.5028,0.6026,"Palm Beach Atlantic University, West Palm Beach, FL",26.7048899,-80.05085158341606,Strong,6,119,30,118945105.491,370186071.451
137962,Trinity College of Florida,Trinity,FL,Interdenominational,0.2578,0.3752,0.4876,0.37325,"Trinity College of Florida, Trinity, FL",28.19391805,-82.67835960740362,Critical,0,797,30,939976.55,3174062.423
139144,Berry College,Mount Berry,GA,Interdenominational,0.823,0.4435,0.5828,0.65102,"Berry College, Mount Berry, GA",34.293036,-85.19174086702785,Elite,7,90,26,402275173.523,1792430506.882
139153,Beulah Heights University,Atlanta,GA,Interdenominational,0.2495,0.3703,0.4677,0.3609799999999999,"Beulah Heights University, Atlanta, GA",,,Critical,0,825,26,0.0,574869.2
140696,Oglethorpe University,Atlanta,GA,Interdenominational,0.6428,0.4153,0.427,0.51096,"Oglethorpe University, Atlanta, GA",,,Healthy,5,243,26,55394131.06,134526315.847
142090,Boise Bible College,Boise,ID,Interdenominational,0.2523999999999999,0.376,0.4740999999999999,0.36584,"Boise Bible College, Boise, ID",,,Critical,0,817,4,744058.766,6185626.727
143118,Aurora University,Aurora,IL,Interdenominational,0.6476999999999999,0.7123,0.4928,0.5986,"Aurora University, Aurora, IL",41.754829,-88.34950358637296,Strong,6,124,42,57093254.696,215487246.504
144050,University of Chicago,Chicago,IL,Interdenominational,0.937,0.9736,0.496,0.76778,"University of Chicago, Chicago, IL",41.79139685,-87.60084387193544,Elite,7,32,42,10776747231.612,9504208947.19
144883,East-West University,Chicago,IL,Interdenominational,0.3741,0.3726,0.5991,0.46387,"East-West University, Chicago, IL",41.8712713,-87.62506935993366,Secure,4,375,42,15918651.608,80918784.288
147369,Moody Bible Institute,Chicago,IL,Interdenominational,0.2884,0.4558,0.5239,0.41612,"Moody Bible Institute, Chicago, IL",41.9002764,-87.6354882298403,Vulnerable,2,606,42,366313699.463,546162814.481
149505,Trinity Christian College,Palos Heights,IL,Interdenominational,0.3075,0.4056,0.5064,0.4067199999999999,"Trinity Christian College, Palos Heights, IL",41.6689319,-87.78340322217727,At-Risk,1,650,42,18248078.865,44901197.103
149781,Wheaton College,Wheaton,IL,Interdenominational,0.5028,0.4749,0.5251,0.50615,"Wheaton College, Wheaton, IL",41.86963745,-88.09755524953694,Healthy,5,253,42,662050503.677,1003275443.333
156213,Asbury University,Wilmore,KY,Interdenominational,0.502,0.4301,0.5339,0.5004,"Asbury University, Wilmore, KY",37.8633341,-84.66528114627815,Healthy,5,265,16,88642139.008,200442971.478
156295,Berea College,Berea,KY,Interdenominational,0.4013,0.4164,0.6304,0.49603,"Berea College, Berea, KY",37.57153635,-84.28979604472684,Healthy,5,275,16,1620002877.407,2219878351.923
157030,Kentucky Mountain Bible College,Jackson,KY,Interdenominational,0.2438,0.3779,0.504,0.37475,"Kentucky Mountain Bible College, Jackson, KY",,,Critical,0,793,16,0.0,10205432.997
164465,Amherst College,Amherst,MA,Interdenominational,0.4677,0.4407999999999999,0.5777,0.50636,"Amherst College, Amherst, MA",42.3703768,-72.5160691823344,Healthy,5,252,51,4254154753.154,5994956042.334
165662,Emerson College,Boston,MA,Interdenominational,0.7473000000000001,0.5659000000000001,0.4956,0.6103000000000001,"Emerson College, Boston, MA",42.3521996,-71.0656808,Strong,6,115,51,279832730.644,684986908.594
165936,Gordon College,Wenham,MA,Interdenominational,0.3568,0.4372,0.4992,0.42987,"Gordon College, Wenham, MA",42.5888528,-70.8203006,Vulnerable,2,538,51,127257830.927,158911668.765
167835,Smith College,Northampton,MA,Interdenominational,0.5482,0.4753,0.5235,0.52375,"Smith College, Northampton, MA",42.31622385,-72.64039315198599,Strong,6,210,51,-174348714.721,-159913609.945
170037,Cornerstone University,Grand Rapids,MI,Interdenominational,0.4145,0.4257999999999999,0.5271,0.46183,"Cornerstone University, Grand Rapids, MI",42.98088915,-85.59574235212932,Secure,4,383,24,21135676.681,113163877.874
174525,Oak Hills Christian College,Bemidji,MN,Interdenominational,0.2498,0.3854999999999999,0.5088,0.38059,"Oak Hills Christian College, Bemidji, MN",,,Critical,0,765,23,1040681.603,4754000.907
178697,College of the Ozarks,Point Lookout,MO,Interdenominational,0.3542,0.4196,0.5851,0.4597,"College of the Ozarks, Point Lookout, MO",36.617958,-93.23650382366762,Secure,4,389,29,699206960.681,909502758.966
186131,Princeton University,Princeton,NJ,Interdenominational,0.9479,0.6751,0.6282,0.76542,"Princeton University, Princeton, NJ",40.33867515,-74.65836549131683,Elite,7,34,15,45087052885.495,48581181910.45
191515,Hamilton College,Clinton,NY,Interdenominational,0.4388,0.4451,0.5596,0.48841,"Hamilton College, Clinton, NY",43.0537974,-75.40693894376341,Healthy,5,289,75,1562290689.945,1752416806.508
192749,Manhattanville College,Purchase,NY,Interdenominational,0.3354,0.4736999999999999,0.4829,0.42208,"Manhattanville College, Purchase, NY",41.0313935,-73.7155858,Vulnerable,2,579,75,27572311.394,25862925.681
193584,Nazareth University,Rochester,NY,Interdenominational,0.4133,0.4896,0.5152,0.46934,"Nazareth University, Rochester, NY",43.1025786,-77.52006821627872,Secure,4,354,75,97344919.158,252971042.652
199032,Montreat College,Montreat,NC,Interdenominational,0.3468,0.3974,0.5203,0.42636,"Montreat College, Montreat, NC",35.6459434,-82.2970364,Vulnerable,2,563,35,10885516.189,114280988.263
201821,The Christ College of Nursing and Health Sciences,Cincinnati,OH,Interdenominational,0.2716,0.4160999999999999,0.5785,0.42332,"The Christ College of Nursing and Health Sciences, Cincinnati, OH",,,Vulnerable,2,575,46,14514141.557,21332772.87
203128,Hiram College,Hiram,OH,Interdenominational,0.3173999999999999,0.3917,0.4888,0.40086,"Hiram College, Hiram, OH",41.3136471,-81.14306812554344,At-Risk,1,681,46,54055666.885,52535268.739
203535,Kenyon College,Gambier,OH,Interdenominational,0.4424,0.4357,0.5168,0.47084,"Kenyon College, Gambier, OH",40.3725696,-82.39427459529426,Secure,4,345,46,668014003.67,1029061481.88
213400,Lancaster Bible College,Lancaster,PA,Interdenominational,0.2998,0.4471,0.4907999999999999,0.40569,"Lancaster Bible College, Lancaster, PA",40.0752884,-76.28808851521957,At-Risk,1,655,51,20909046.413,63044709.244
213996,Messiah University,Mechanicsburg,PA,Interdenominational,0.4629999999999999,0.494,0.4932,0.48128,"Messiah University, Mechanicsburg, PA",40.19369145,-76.97605268396879,Healthy,5,311,51,110423257.013,191459755.953
215114,Cairn University-Langhorne,Langhorne,PA,Interdenominational,0.3336,0.4086999999999999,0.4947999999999999,0.41313,"Cairn University-Langhorne, Langhorne, PA",,,Vulnerable,2,620,51,16081418.168,36916567.823
217235,Johnson & Wales University-Providence,Providence,RI,Interdenominational,0.6033,0.3779,0.5235,0.52632,"Johnson & Wales University-Providence, Providence, RI",41.78823615,-71.39038710016683,Strong,6,201,8,453968599.208,669501103.112
217925,Columbia International University,Columbia,SC,Interdenominational,0.2119,0.4700999999999999,0.492,0.37561,"Columbia International University, Columbia, SC",,,Critical,0,787,19,6571509.862,63267776.061
218070,Furman University,Greenville,SC,Interdenominational,0.6263000000000001,0.4645,0.5604,0.56759,"Furman University, Greenville, SC",34.92577435,-82.4385258125221,Strong,6,152,19,930653722.2,1280839014.117
218238,Limestone University,Gaffney,SC,Interdenominational,0.4219,0.4211,0.4721,0.4418399999999999,"Limestone University, Gaffney, SC",35.05532985,-81.64839226367576,Stable,3,469,19,-36304529.043,-39166761.318
219709,Belmont University,Nashville,TN,Interdenominational,0.9774,0.6693000000000001,0.5136,0.73018,"Belmont University, Nashville, TN",36.13278325,-86.79265777214094,Elite,7,53,28,497223117.777,1779970330.445
219790,Bryan College-Dayton,Dayton,TN,Interdenominational,0.2991,0.4032,0.4947999999999999,0.39824,"Bryan College-Dayton, Dayton, TN",35.49789125,-84.99855097356965,At-Risk,1,698,28,11031494.867,41619052.845
220604,Le Moyne-Owen College,Memphis,TN,Interdenominational,0.2716,0.3863,0.4582,0.36921,"Le Moyne-Owen College, Memphis, TN",,,Critical,0,809,28,11839982.715,59222718.996
226231,LeTourneau University,Longview,TX,Interdenominational,0.5565,0.4364,0.4503,0.48999,"LeTourneau University, Longview, TX",32.46575895,-94.726444524352,Healthy,5,282,31,33535602.32,143774586.905
230816,Bennington College,Bennington,VT,Interdenominational,0.3092,0.4059,0.4896,0.40073,"Bennington College, Bennington, VT",42.92044325,-73.23852531543986,At-Risk,1,682,7,59433818.69,87432949.965
231651,Regent University,Virginia Beach,VA,Interdenominational,0.6609,0.7293999999999999,0.4972,0.6090599999999999,"Regent University, Virginia Beach, VA",36.79932065,-76.19440046772189,Strong,6,116,22,52200584.009,156396704.683
233301,Randolph College,Lynchburg,VA,Interdenominational,0.4471,0.3924,0.4709,0.4457,"Randolph College, Lynchburg, VA",37.43933375,-79.17093485132823,Stable,3,449,22,211944670.913,310890641.099
243744,Stanford University,Stanford,CA,Interdenominational,0.9879,0.8878,0.5287,0.78408,"Stanford University, Stanford, CA",37.43131385,-122.1693653549831,Elite,7,20,30,43678472171.516,59350958269.808
384254,Beacon College,Leesburg,FL,Interdenominational,0.3274,0.397,0.4876,0.40543,"Beacon College, Leesburg, FL",28.81243925,-81.87392600460183,At-Risk,1,656,30,149238.744,30501894.92
443340,Williamson Christian College,Franklin,TN,Interdenominational,0.2401,0.3661999999999999,0.4864,0.36389,"Williamson Christian College, Franklin, TN",,,Critical,0,821,28,0.0,844013.053
449764,Visible Music College,Memphis,TN,Interdenominational,0.2566,0.389,0.4745,0.37028,"Visible Music College, Memphis, TN",35.144546,-90.04930292827464,Critical,0,808,28,0.0,-3393647.795
137777,Talmudic College of Florida,Miami Beach,FL,Jewish,0.2413,0.376,0.51,0.37577,"Talmudic College of Florida, Miami Beach, FL",,,Critical,0,784,30,1352299.268,15991356.419
164580,Babson College,Wellesley,MA,Jewish,0.5636,0.5486,0.5115999999999999,0.53979,"Babson College, Wellesley, MA",42.29914,-71.2622114,Strong,6,182,51,825599767.255,1143888723.248
164632,Bay Path University,Longmeadow,MA,Jewish,0.2915,0.51,0.5064,0.42118,"Bay Path University, Longmeadow, MA",42.055796,-72.58419180850242,Vulnerable,2,583,51,89141668.389,117218760.919
189857,Central Yeshiva Tomchei Tmimim Lubavitz,Brooklyn,NY,Jewish,0.3282,0.3917,0.5489,0.42923,"Central Yeshiva Tomchei Tmimim Lubavitz, Brooklyn, NY",,,Vulnerable,2,539,75,0.0,16067333.049
197647,Yeshiva Derech Chaim,Brooklyn,NY,Jewish,0.2489,0.3672999999999999,0.5259,0.38344,"Yeshiva Derech Chaim, Brooklyn, NY",,,Critical,0,753,75,0.0,2978831.296
197708,Yeshiva University,New York,NY,Jewish,0.4956,0.5663,0.4896,0.50732,"Yeshiva University, New York, NY",40.84898065,-73.92984026052692,Healthy,5,251,75,514895874.992,511753421.412
205124,Rabbinical College Telshe,Wickliffe,OH,Jewish,0.2489,0.3749,0.5047999999999999,0.37651,"Rabbinical College Telshe, Wickliffe, OH",,,Critical,0,781,46,266364.759,7080266.175
451398,Yeshiva Toras Chaim,Lakewood,NJ,Jewish,0.2703,0.3749,0.7277,0.4743,"Yeshiva Toras Chaim, Lakewood, NJ",,,Secure,4,333,15,0.0,10442893.149
455257,Yeshiva of Machzikai Hadas,Brooklyn,NY,Jewish,0.2746,0.3959,0.5175,0.39607,"Yeshiva of Machzikai Hadas, Brooklyn, NY",,,At-Risk,1,707,75,0.0,22276603.571
110413,California Lutheran University,Thousand Oaks,CA,Lutheran,0.5572,0.5386,0.4789,0.5221399999999999,"California Lutheran University, Thousand Oaks, CA",34.22655655,-118.8785216793059,Healthy,5,218,30,177402642.081,350223900.924
112075,Concordia University-Irvine,Irvine,CA,Lutheran,0.4136999999999999,0.5789,0.4952,0.47933,"Concordia University-Irvine, Irvine, CA",33.65393299999999,-117.810899965439,Secure,4,318,30,77124887.42,212242129.241
143084,Augustana College,Rock Island,IL,Lutheran,0.5659000000000001,0.4522,0.514,0.52241,"Augustana College, Rock Island, IL",41.5015277,-90.550369870788,Healthy,5,217,42,245717028.381,413812596.105
144351,Concordia University-Chicago,River Forest,IL,Lutheran,0.3684,0.6164000000000001,0.488,0.4658299999999999,"Concordia University-Chicago, River Forest, IL",41.8993058,-87.80945756076432,Secure,4,367,42,33351280.489,37035716.786
153375,Grand View University,Des Moines,IA,Lutheran,0.3771,0.4325,0.492,0.43416,"Grand View University, Des Moines, IA",41.61980315,-93.5988096106748,Stable,3,515,25,44247249.718,80430556.977
153834,Luther College,Decorah,IA,Lutheran,0.3347,0.4157,0.5572,0.4399499999999999,"Luther College, Decorah, IA",43.3169528,-91.79850254143064,Stable,3,485,25,228431300.245,303816832.513
154527,Wartburg College,Waverly,IA,Lutheran,0.4025,0.4168,0.4936,0.44182,"Wartburg College, Waverly, IA",42.73114305,-92.48568382574044,Stable,3,470,25,105913802.997,156231747.705
154721,Bethany College,Lindsborg,KS,Lutheran,0.2922,0.3871,0.4829,0.3875,"Bethany College, Lindsborg, KS",38.5810524,-97.67209728576788,Critical,0,743,17,56798919.108,41196170.937
154721,Bethany College,Lindsborg,KS,Lutheran,0.2922,0.3871,0.4829,0.3875,"Bethany College, Lindsborg, KS",38.5810524,-97.67209728576788,Critical,0,743,17,21213637.344,8525509.56
173045,Augsburg University,Minneapolis,MN,Lutheran,0.7145999999999999,0.4813,0.4916,0.57872,"Augsburg University, Minneapolis, MN",44.9662364,-93.24110466136236,Strong,6,140,23,91344558.713,150012366.637
173142,Bethany Lutheran College,Mankato,MN,Lutheran,0.3605,0.3947,0.508,0.42638,"Bethany Lutheran College, Mankato, MN",44.16674125,-93.99104281930204,Vulnerable,2,562,23,54118396.307,100262479.456
173300,Concordia College at Moorhead,Moorhead,MN,Lutheran,0.4490999999999999,0.4243,0.5136,0.46996,"Concordia College at Moorhead, Moorhead, MN",,,Secure,4,348,23,208638478.978,355745814.413
173328,Concordia University-Saint Paul,Saint Paul,MN,Lutheran,0.4825,0.6722,0.5195000000000001,0.53521,"Concordia University-Saint Paul, Saint Paul, MN",44.9497767,-93.15731626748348,Strong,6,187,23,53566572.079,183574501.801
173647,Gustavus Adolphus College,Saint Peter,MN,Lutheran,0.4740999999999999,0.44,0.5147999999999999,0.4835799999999999,"Gustavus Adolphus College, Saint Peter, MN",44.3241873,-93.97146812490595,Healthy,5,303,23,373783675.686,579298972.016
174844,St Olaf College,Northfield,MN,Lutheran,0.7873,0.4689,0.5171,0.61552,"St Olaf College, Northfield, MN",44.4640025,-93.18717908824593,Strong,6,112,23,886344578.208,1111314642.612
180984,Concordia University-Nebraska,Seward,NE,Lutheran,0.4349,0.4657,0.512,0.47192,"Concordia University-Nebraska, Seward, NE",40.91364059999999,-97.08751020355166,Secure,4,342,11,90111193.665,188272005.103
181330,Midland University,Fremont,NE,Lutheran,0.397,0.4357,0.488,0.44116,"Midland University, Fremont, NE",41.43827405,-96.48772006532069,Stable,3,473,11,35966449.785,53321214.929
197197,Wagner College,Staten Island,NY,Lutheran,0.3893999999999999,0.4439,0.4892,0.44024,"Wagner College, Staten Island, NY",40.6147187,-74.09355867259515,Stable,3,482,75,124330040.389,167786627.351
198835,Lenoir-Rhyne University,Hickory,NC,Lutheran,0.4507,0.4598,0.5028,0.47337,"Lenoir-Rhyne University, Hickory, NC",35.74174755,-81.32675812958784,Secure,4,337,35,161584213.369,247909731.275
201548,Capital University,Columbus,OH,Lutheran,0.3409,0.4664999999999999,0.502,0.43048,"Capital University, Columbus, OH",39.95543425,-82.9376326885703,Vulnerable,2,531,46,154685044.37,238452178.673
206525,Wittenberg University,Springfield,OH,Lutheran,0.3635,0.4102,0.4832,0.42075,"Wittenberg University, Springfield, OH",39.9351075,-83.81305544869264,Vulnerable,2,585,46,72000264.995,40966953.172
212674,Gettysburg College,Gettysburg,PA,Lutheran,0.4629999999999999,0.4589999999999999,0.5115999999999999,0.48166,"Gettysburg College, Gettysburg, PA",39.8374688,-77.23964053600594,Healthy,5,310,51,460839110.246,580960380.197
214175,Muhlenberg College,Allentown,PA,Lutheran,0.3613,0.4424,0.5052,0.43511,"Muhlenberg College, Allentown, PA",40.59758265,-75.5104839064264,Stable,3,509,51,371421954.066,520285536.692
216278,Susquehanna University,Selinsgrove,PA,Lutheran,0.4614,0.4565999999999999,0.5047999999999999,0.47781,"Susquehanna University, Selinsgrove, PA",40.79688725,-76.8750374280338,Secure,4,322,51,235717964.662,315936484.417
216357,Thiel College,Greenville,PA,Lutheran,0.3114,0.3897,0.4968,0.4012599999999999,"Thiel College, Greenville, PA",41.41321855,-80.3857097541329,At-Risk,1,678,51,52054022.847,63933322.235
218414,Newberry College,Newberry,SC,Lutheran,0.6141,0.4102,0.4876,0.52272,"Newberry College, Newberry, SC",34.2852622,-81.6216373558786,Healthy,5,216,19,22655839.486,47311201.705
219000,Augustana University,Sioux Falls,SD,Lutheran,0.4589999999999999,0.4740999999999999,0.5012,0.47891,"Augustana University, Sioux Falls, SD",43.52533409999999,-96.73875740832086,Secure,4,319,4,140305149.33,335183811.243
224004,Concordia University Texas,Austin,TX,Lutheran,0.3947,0.4578,0.4947999999999999,0.44738,"Concordia University Texas, Austin, TX",30.4187934,-97.83847636586177,Stable,3,440,31,32770478.631,138952507.899
233426,Roanoke College,Salem,VA,Lutheran,0.5667,0.4313,0.5251,0.52299,"Roanoke College, Salem, VA",37.29778755,-80.05499962542144,Healthy,5,212,22,177318748.563,356369880.985
236230,Pacific Lutheran University,Tacoma,WA,Lutheran,0.6361,0.4622,0.492,0.54367,"Pacific Lutheran University, Tacoma, WA",47.14375725,-122.4443888659279,Strong,6,179,12,145866498.292,188569808.126
240338,Wisconsin Lutheran College,Milwaukee,WI,Lutheran,0.4257999999999999,0.4048,0.496,0.4497099999999999,"Wisconsin Lutheran College, Milwaukee, WI",43.03726535,-88.02194662020278,Stable,3,430,18,45523721.949,100072815.84
100937,Birmingham-Southern College,Birmingham,AL,Methodist,0.2572,0.4114,0.4677,0.37227,"Birmingham-Southern College, Birmingham, AL",33.51618545,-86.85584696849322,Critical,0,803,11,-28907620.377,-39629986.801
101435,Huntingdon College,Montgomery,AL,Methodist,0.512,0.4000999999999999,0.5104,0.489,"Huntingdon College, Montgomery, AL",32.3493496,-86.28521194328175,Healthy,5,284,11,63675828.968,78700258.488
101675,Miles College,Fairfield,AL,Methodist,0.2303,0.3928,0.504,0.37233,"Miles College, Fairfield, AL",33.48109865,-86.90911015439585,Critical,0,802,11,2181155.276,82947679.059
107080,Hendrix College,Conway,AR,Methodist,0.3646999999999999,0.4013,0.5068,0.4289,"Hendrix College, Conway, AR",35.1008234,-92.4420508402078,Vulnerable,2,543,7,179109947.452,210247125.24
120883,University of the Pacific,Stockton,CA,Methodist,0.6754000000000001,0.6045,0.504,0.59262,"University of the Pacific, Stockton, CA",37.98042375,-121.3128471983267,Strong,6,127,30,739230986.384,1159771049.808
127060,University of Denver,Denver,CO,Methodist,0.9661,0.927,0.5072,0.77459,"University of Denver, Denver, CO",39.6783106,-104.9624727630881,Elite,7,29,5,1330532838.483,2082147541.686
132602,Bethune-Cookman University,Daytona Beach,FL,Methodist,0.5501,0.425,0.4911999999999999,0.50153,"Bethune-Cookman University, Daytona Beach, FL",29.21185355,-81.03198250103571,Healthy,5,260,30,32659573.668,160169305.958
133526,Edward Waters University,Jacksonville,FL,Methodist,0.4852,0.3897,0.4757,0.46232,"Edward Waters University, Jacksonville, FL",30.34419595,-81.68356941956846,Secure,4,380,30,1680649.0,58382801.242
134079,Florida Southern College,Lakeland,FL,Methodist,0.7264,0.4972,0.5028,0.5911,"Florida Southern College, Lakeland, FL",28.0304561,-81.94554251154706,Strong,6,131,30,117004041.609,311290347.297
138761,Andrew College,Cuthbert,GA,Methodist,0.3099,0.3829,0.4952,0.39866,"Andrew College, Cuthbert, GA",31.77219555,-84.79570870718634,At-Risk,1,696,26,13466384.674,19224267.868
138947,Clark Atlanta University,Atlanta,GA,Methodist,0.9917,0.4745,0.7514,0.79217,"Clark Atlanta University, Atlanta, GA",33.75012475,-84.41158897451389,Elite,7,17,26,114792226.859,431803123.434
139658,Emory University,Atlanta,GA,Methodist,0.998,0.9041,0.5056,0.78213,"Emory University, Atlanta, GA",33.7969409,-84.32371468406527,Elite,7,21,26,10491058820.98,19466266538.915
140234,LaGrange College,Lagrange,GA,Methodist,0.3632,0.4028,0.5015999999999999,0.42651,"LaGrange College, Lagrange, GA",33.03381105,-85.04675027949351,Vulnerable,2,561,26,62373136.219,117784943.466
140720,Paine College,Augusta,GA,Methodist,0.2891,0.3699,0.4847999999999999,0.38358,"Paine College, Augusta, GA",33.46943155,-81.99560322689779,Critical,0,752,26,5150467.0,10187933.602
140872,Reinhardt University,Waleska,GA,Methodist,0.5004,0.4211,0.496,0.48279,"Reinhardt University, Waleska, GA",34.32186065,-84.55274396651248,Healthy,5,305,26,47300054.92,75855191.643
141325,Wesleyan College,Macon,GA,Methodist,0.3424,0.3963,0.5343,0.42999,"Wesleyan College, Macon, GA",32.87342845000001,-83.71773399748099,Vulnerable,2,536,26,56098069.925,97176010.659
141361,Young Harris College,Young Harris,GA,Methodist,0.4522,0.4009,0.5179,0.46825,"Young Harris College, Young Harris, GA",34.9357023,-83.84596813095078,Secure,4,359,26,57319246.267,168408951.972
145372,Greenville University,Greenville,IL,Methodist,0.3358,0.4079,0.4809,0.40829,"Greenville University, Greenville, IL",38.89648605,-89.41250813892516,At-Risk,1,641,42,32434902.025,48111285.915
147013,McKendree University,Lebanon,IL,Methodist,0.4817,0.4376,0.484,0.47381,"McKendree University, Lebanon, IL",38.60868085,-89.81521661455423,Secure,4,334,42,38765821.195,74556916.734
147129,Methodist College,Peoria,IL,Methodist,0.2373,0.4094,0.4805,0.36904,"Methodist College, Peoria, IL",40.78028965,-89.6829654980177,Critical,0,811,42,39431046.163,86918459.7
147660,North Central College,Naperville,IL,Methodist,0.4852,0.4606,0.5032,0.48749,"North Central College, Naperville, IL",41.77436545,-88.14274924248255,Healthy,5,292,42,143675157.361,295352004.087
150400,DePauw University,Greencastle,IN,Methodist,0.573,0.4222999999999999,0.5251,0.52372,"DePauw University, Greencastle, IN",39.63804945,-86.86687365754466,Strong,6,211,23,753498436.894,1013264892.264
150534,University of Evansville,Evansville,IN,Methodist,0.7340000000000001,0.4388,0.9314,0.7540399999999999,"University of Evansville, Evansville, IN",37.9735131,-87.53229765717168,Elite,7,39,23,173163950.365,318507866.54
151263,University of Indianapolis,Indianapolis,IN,Methodist,0.6072,0.5714,0.4911999999999999,0.5536099999999999,"University of Indianapolis, Indianapolis, IN",39.70939645,-86.13445225207252,Strong,6,162,23,147068704.194,199257497.601
153162,Cornell College,Mount Vernon,IA,Methodist,0.3897,0.4017,0.5024000000000001,0.43721,"Cornell College, Mount Vernon, IA",41.9253978,-91.42398552745183,Stable,3,498,25,103368586.672,201187263.374
154004,Morningside University,Sioux City,IA,Methodist,0.3913,0.4558,0.506,0.4501,"Morningside University, Sioux City, IA",,,Stable,3,429,25,74089017.9,121450085.088
154350,Simpson College,Indianola,IA,Methodist,0.3756,0.4048,0.4932,0.42851,"Simpson College, Indianola, IA",41.3662127,-93.5660540991244,Vulnerable,2,547,25,103971248.982,112886753.176
154688,Baker University,Baldwin City,KS,Methodist,0.3202,0.4309,0.4964,0.4128499999999999,"Baker University, Baldwin City, KS",38.77624315,-95.17939500727704,Vulnerable,2,622,17,58083413.484,95481253.772
155414,Kansas Wesleyan University,Salina,KS,Methodist,0.3779,0.3932,0.5064,0.4324,"Kansas Wesleyan University, Salina, KS",38.8135329,-97.61005437482667,Stable,3,524,17,52395997.589,68292148.433
155900,Southwestern College,Winfield,KS,Methodist,0.317,0.4075,0.4832,0.40161,"Southwestern College, Winfield, KS",37.24924525,-96.97401911330236,At-Risk,1,672,17,4599760.521,14282877.513
157076,Kentucky Wesleyan College,Owensboro,KY,Methodist,0.349,0.4004999999999999,0.4924,0.4166899999999999,"Kentucky Wesleyan College, Owensboro, KY",37.7433245,-87.12062019141567,Vulnerable,2,600,16,41533486.438,43960959.25
157216,Lindsey Wilson College,Columbia,KY,Methodist,0.4589999999999999,0.4700999999999999,0.5032,0.47891,"Lindsey Wilson College, Columbia, KY",37.1020748,-85.29968609783923,Secure,4,319,16,42007451.572,121360309.789
157863,Union College,Barbourville,KY,Methodist,0.3177,0.4157,0.4996,0.41009,"Union College, Barbourville, KY",36.87209919999999,-83.88792369909103,At-Risk,1,634,16,34318226.734,56893240.579
157863,Union College,Barbourville,KY,Methodist,0.3177,0.4157,0.4996,0.41009,"Union College, Barbourville, KY",36.87209919999999,-83.88792369909103,At-Risk,1,634,16,34318226.724,56893237.636
158477,Centenary College of Louisiana,Shreveport,LA,Methodist,0.5303,0.3928,0.5156000000000001,0.49694,"Centenary College of Louisiana, Shreveport, LA",32.4842248,-93.73171274297071,Healthy,5,273,8,162686063.668,175378424.426
158802,Dillard University,New Orleans,LA,Methodist,0.3256,0.4052,0.5115999999999999,0.4159599999999999,"Dillard University, New Orleans, LA",29.9962374,-90.0653677710487,Vulnerable,2,607,8,98509467.15,208561565.65
168528,Adrian College,Adrian,MI,Methodist,0.5024000000000001,0.4317,0.4924,0.48427,"Adrian College, Adrian, MI",41.89849465,-84.06083239910039,Healthy,5,300,24,66246897.227,124351777.239
168546,Albion College,Albion,MI,Methodist,0.4301,0.4157,0.496,0.4536,"Albion College, Albion, MI",42.2437255,-84.74290095493066,Secure,4,413,24,162837906.127,194367881.912
172334,Spring Arbor University,Spring Arbor,MI,Methodist,0.3515999999999999,0.496,0.498,0.43906,"Spring Arbor University, Spring Arbor, MI",42.20800175,-84.55633879411187,Stable,3,490,24,26642357.9,117431283.472
173665,Hamline University,Saint Paul,MN,Methodist,0.4388,0.4733,0.4984,0.4695499999999999,"Hamline University, Saint Paul, MN",44.96651135,-93.16458641389622,Secure,4,351,23,148662628.756,211828910.429
175980,Millsaps College,Jackson,MS,Methodist,0.3071,0.3917,0.5251,0.41127,"Millsaps College, Jackson, MS",32.32196355,-90.1798225329653,Vulnerable,2,630,6,106017093.802,180710458.086
176318,Rust College,Holly Springs,MS,Methodist,0.2719,0.3817,0.5115999999999999,0.3897899999999999,"Rust College, Holly Springs, MS",34.77623250000001,-89.44731846573404,At-Risk,1,734,6,-12292775.62,84446782.312
176947,Central Methodist University-College of Liberal Arts and Sciences,Fayette,MO,Methodist,0.2603999999999999,0.4086999999999999,0.5363,0.40047,"Central Methodist University-College of Liberal Arts and Sciences, Fayette, MO",,,At-Risk,1,684,29,68369726.009,185706586.072
181297,Nebraska Methodist College of Nursing & Allied Health,Omaha,NE,Methodist,0.264,0.4454999999999999,0.51,0.39874,"Nebraska Methodist College of Nursing & Allied Health, Omaha, NE",41.2657787,-96.04838707482637,At-Risk,1,695,11,3682362.415,50294004.428
181446,Nebraska Wesleyan University,Lincoln,NE,Methodist,0.4379999999999999,0.4313,0.5291,0.47313,"Nebraska Wesleyan University, Lincoln, NE",40.8383056,-96.64792960546532,Secure,4,338,11,86489169.357,160503463.511
183974,Centenary University,Hackettstown,NJ,Methodist,0.3329,0.4145,0.4793,0.40781,"Centenary University, Hackettstown, NJ",40.8470669,-74.8351007155218,At-Risk,1,647,15,19960438.503,-22660812.67
184348,Drew University,Madison,NJ,Methodist,0.4404,0.4463,0.4896,0.46127,"Drew University, Madison, NJ",40.76053795,-74.42816053099715,Secure,4,384,15,119531081.814,96414784.265
194958,Roberts Wesleyan University,Rochester,NY,Methodist,0.3128,0.455,0.4988,0.41567,"Roberts Wesleyan University, Rochester, NY",43.12430275,-77.79839481733976,Vulnerable,2,609,75,40616776.973,110674171.941
196413,Syracuse University,Syracuse,NY,Methodist,0.9987,0.9719,0.5015999999999999,0.7943600000000001,"Syracuse University, Syracuse, NY",43.01711285,-76.11855360009726,Elite,7,15,75,2282785566.015,3784430696.459
197993,Bennett College,Greensboro,NC,Methodist,0.2198,0.3722,0.4936,0.35985,"Bennett College, Greensboro, NC",36.0675102,-79.77963822343997,Critical,0,828,35,17332614.492,62219276.978
198066,Brevard College,Brevard,NC,Methodist,0.3624,0.3939999999999999,0.5044,0.42556,"Brevard College, Brevard, NC",35.237431,-82.72641122025428,Vulnerable,2,565,35,38729258.914,73428125.702
198419,Duke University,Durham,NC,Methodist,0.9942,0.9808,0.5199,0.8016599999999999,"Duke University, Durham, NC",36.00015569999999,-78.94422972195878,Elite,7,7,35,14751189917.749,20317859864.844
198598,Greensboro College,Greensboro,NC,Methodist,0.4203,0.4021,0.4992,0.44825,"Greensboro College, Greensboro, NC",36.0713888,-79.8008558023214,Stable,3,437,35,30513410.131,36602832.631
198695,High Point University,High Point,NC,Methodist,0.9913,0.6198,0.5056,0.72265,"High Point University, High Point, NC",35.9720859,-79.9936582,Elite,7,57,35,202020476.542,1201373037.187
198862,Livingstone College,Salisbury,NC,Methodist,0.3997,0.3878,0.4932,0.43475,"Livingstone College, Salisbury, NC",35.67128695,-80.48567951259292,Stable,3,512,35,2318188.436,88715930.898
198969,Methodist University,Fayetteville,NC,Methodist,0.4428,0.4246999999999999,0.5108,0.4664,"Methodist University, Fayetteville, NC",35.13408025,-78.87242991721607,Secure,4,366,35,73000744.836,137238321.808
199209,North Carolina Wesleyan University,Rocky Mount,NC,Methodist,0.3571999999999999,0.4309,0.5052,0.43117,"North Carolina Wesleyan University, Rocky Mount, NC",36.01543505,-77.77490978880125,Vulnerable,2,530,35,13596362.304,45052041.272
199306,Pfeiffer University,Misenheimer,NC,Methodist,0.326,0.4044,0.4864,0.40587,"Pfeiffer University, Misenheimer, NC",35.48645430000001,-80.2821503180376,At-Risk,1,653,35,22519393.398,35046501.163
201195,Baldwin Wallace University,Berea,OH,Methodist,0.545,0.4943999999999999,0.4984,0.51624,"Baldwin Wallace University, Berea, OH",41.37161015,-81.84848946631152,Healthy,5,231,46,193218530.128,274898182.54
204185,University of Mount Union,Alliance,OH,Methodist,0.4424,0.4467,0.5219,0.47508,"University of Mount Union, Alliance, OH",40.90423869999999,-81.1106865488107,Secure,4,330,46,167995141.339,309507680.148
204635,Ohio Northern University,Ada,OH,Methodist,0.5024000000000001,0.4586,0.4988,0.49221,"Ohio Northern University, Ada, OH",40.76557505,-83.83356241022632,Healthy,5,278,46,222732368.854,322635421.112
204909,Ohio Wesleyan University,Delaware,OH,Methodist,0.4004999999999999,0.4086999999999999,0.5315,0.45458,"Ohio Wesleyan University, Delaware, OH",40.292858,-83.06427625448865,Secure,4,410,46,345939913.02,489117858.291
204936,Otterbein University,Westerville,OH,Methodist,0.4404,0.4633,0.5024000000000001,0.46979,"Otterbein University, Westerville, OH",40.127744,-82.93627779442062,Secure,4,349,46,141448044.691,230634365.864
210401,Willamette University,Salem,OR,Methodist,0.5024000000000001,0.4337,0.5028,0.48883,"Willamette University, Salem, OR",44.9355889,-123.0308129250331,Healthy,5,286,11,409997685.993,459761975.617
210571,Albright College,Reading,PA,Methodist,0.3546,0.4039999999999999,0.484,0.41627,"Albright College, Reading, PA",40.3627666,-75.91176286761947,Vulnerable,2,603,51,68066715.658,71444616.898
210669,Allegheny College,Meadville,PA,Methodist,0.2793,0.4207,0.5056,0.39814,"Allegheny College, Meadville, PA",41.6480894,-80.14529767068235,At-Risk,1,700,51,324310270.263,375921689.393
212009,Dickinson College,Carlisle,PA,Methodist,0.4586,0.4309,0.516,0.47604,"Dickinson College, Carlisle, PA",40.20281155,-77.19957403793873,Secure,4,327,51,735225413.689,826923533.973
213507,Lebanon Valley College,Annville,PA,Methodist,0.4168,0.4542,0.4992,0.45726,"Lebanon Valley College, Annville, PA",40.3345578,-76.51374559549934,Secure,4,401,51,96791159.236,232086280.679
213668,Lycoming College,Williamsport,PA,Methodist,0.3479,0.4000999999999999,0.5183,0.42654,"Lycoming College, Williamsport, PA",41.2454429,-76.99988254888089,Vulnerable,2,560,51,165765636.272,277985347.296
217624,Allen University,Columbia,SC,Methodist,0.3424,0.3893999999999999,0.508,0.41808,"Allen University, Columbia, SC",34.01046295,-81.0199355569104,Vulnerable,2,599,19,1168290.958,68957608.56
217891,Clinton College,Rock Hill,SC,Methodist,0.2478999999999999,0.3635,0.3494,0.31163,"Clinton College, Rock Hill, SC",34.9134907,-81.0431600314637,Critical,0,840,19,0.0,10574878.45
217934,Columbia College,Columbia,SC,Methodist,0.3657999999999999,0.4396,0.4956,0.4325,"Columbia College, Columbia, SC",34.04613184999999,-81.03038940347594,Stable,3,523,19,17525924.536,45963152.404
217934,Columbia College,Columbia,SC,Methodist,0.3657999999999999,0.4396,0.4956,0.4325,"Columbia College, Columbia, SC",34.04613184999999,-81.03038940347594,Stable,3,523,19,173120854.436,247895400.866
218821,Spartanburg Methodist College,Spartanburg,SC,Methodist,0.4888,0.4086999999999999,0.512,0.48208,"Spartanburg Methodist College, Spartanburg, SC",34.95293105,-81.96916849432738,Healthy,5,309,19,31084100.251,54231586.213
218973,Wofford College,Spartanburg,SC,Methodist,0.6037,0.4345,0.5132,0.53367,"Wofford College, Spartanburg, SC",34.96115815,-81.93532160934096,Strong,6,188,19,459136303.005,652941128.41
219091,Dakota Wesleyan University,Mitchell,SD,Methodist,0.3061,0.4032,0.5008,0.40344,"Dakota Wesleyan University, Mitchell, SD",43.69723515,-98.03046792635384,At-Risk,1,662,4,47619462.996,76089541.123
220598,Lane College,Jackson,TN,Methodist,0.2759,0.3871,0.5251,0.39787,"Lane College, Jackson, TN",35.6282633,-88.80669166676904,At-Risk,1,701,28,4509654.066,58102062.35
221731,Tennessee Wesleyan University,Athens,TN,Methodist,0.3128,0.4227,0.4904,0.40585,"Tennessee Wesleyan University, Athens, TN",35.44761055,-84.5944217053022,At-Risk,1,654,28,16094035.773,31119617.356
226587,McMurry University,Abilene,TX,Methodist,0.5753,0.4009,0.5199,0.5182800000000001,"McMurry University, Abilene, TX",32.429358,-99.74872217744309,Healthy,5,224,31,81508840.133,181418362.939
227429,Paul Quinn College,Dallas,TX,Methodist,0.3061,0.392,0.492,0.39768,"Paul Quinn College, Dallas, TX",32.6788166,-96.75367781374204,At-Risk,1,702,31,-10016354.852,35096056.471
228246,Southern Methodist University,Dallas,TX,Methodist,0.9987,0.8568000000000001,0.5179,0.77788,"Southern Methodist University, Dallas, TX",32.84180114999999,-96.78152810147064,Elite,7,27,31,2457485744.064,4136993725.935
228343,Southwestern University,Georgetown,TX,Methodist,0.6114,0.4286,0.5132,0.53557,"Southwestern University, Georgetown, TX",30.6371513,-97.66274097607484,Strong,6,186,31,476755918.22,648426933.146
228884,Texas College,Tyler,TX,Methodist,0.3628,0.3821,0.3177,0.3486,"Texas College, Tyler, TX",32.3746078,-95.31245324946968,Critical,0,837,31,3184466.921,86462277.209
229160,Texas Wesleyan University,Fort Worth,TX,Methodist,0.7881,0.4503,0.627,0.6561199999999999,"Texas Wesleyan University, Fort Worth, TX",32.73306755,-97.28013399216506,Elite,7,88,31,69181216.393,191672051.141
232025,Emory & Henry University,Emory,VA,Methodist,0.5191,0.4175999999999999,0.4976,0.49021,"Emory & Henry University, Emory, VA",,,Healthy,5,281,22,105938491.072,207844889.321
232089,Ferrum College,Ferrum,VA,Methodist,0.2867,0.3882,0.502,0.39316,"Ferrum College, Ferrum, VA",36.93142245,-80.02813058907365,At-Risk,1,722,22,69567531.555,104241113.089
233295,Randolph-Macon College,Ashland,VA,Methodist,0.498,0.4261999999999999,0.5075999999999999,0.4875,"Randolph-Macon College, Ashland, VA",37.7625105,-77.47954212782594,Healthy,5,291,22,266170850.373,369025990.229
233541,Shenandoah University,Winchester,VA,Methodist,0.5513,0.5454,0.492,0.52638,"Shenandoah University, Winchester, VA",39.16630535,-78.15876380974831,Strong,6,200,22,91468760.278,198877310.5
234173,Virginia Wesleyan University,Virginia Beach,VA,Methodist,0.4160999999999999,0.4129,0.5191,0.45669,"Virginia Wesleyan University, Virginia Beach, VA",36.86802,-76.1877440355182,Secure,4,405,22,168199556.851,250885917.554
236328,University of Puget Sound,Tacoma,WA,Methodist,0.488,0.4507,0.5275,0.49636,"University of Puget Sound, Tacoma, WA",47.261437,-122.4809573217707,Healthy,5,274,12,548364873.475,713613237.9
236577,Seattle Pacific University,Seattle,WA,Methodist,0.1785,0.5215,0.4996,0.37557,"Seattle Pacific University, Seattle, WA",47.64886755,-122.3619664218745,Critical,0,788,12,214946831.333,298253709.198
237969,West Virginia Wesleyan College,Buckhannon,WV,Methodist,0.2963,0.4036,0.5267000000000001,0.40997,"West Virginia Wesleyan College, Buckhannon, WV",38.99047564999999,-80.21826091194856,At-Risk,1,635,6,91172006.06,137666307.809
102377,Tuskegee University,Tuskegee,AL,Not applicable,0.9695,0.4578,0.5112,0.6838,"Tuskegee University, Tuskegee, AL",32.4301095,-85.70673351537872,Elite,7,79,11,171767411.222,543580962.365
109651,Art Center College of Design,Pasadena,CA,Not applicable,0.4522,0.4733,0.4932,0.47283,"Art Center College of Design, Pasadena, CA",34.16874025,-118.1851007250844,Secure,4,340,30,166702816.018,264629084.541
110370,California College of the Arts,San Francisco,CA,Not applicable,0.3001,0.44,0.4884,0.40343,"California College of the Arts, San Francisco, CA",37.767859,-122.4006018694869,At-Risk,1,663,30,53646047.166,160979453.959
111966,Charles R Drew University of Medicine and Science,Los Angeles,CA,Not applicable,0.2382,0.3989999999999999,0.5,0.3751299999999999,"Charles R Drew University of Medicine and Science, Los Angeles, CA",33.92682765,-118.2423498962722,Critical,0,790,30,124347612.954,318121825.357
112260,Claremont McKenna College,Claremont,CA,Not applicable,0.4219,0.4231,0.5584,0.47678,"Claremont McKenna College, Claremont, CA",34.0999577,-117.7061791541111,Secure,4,324,30,1371196591.672,2100015233.444
115409,Harvey Mudd College,Claremont,CA,Not applicable,0.3632,0.4122,0.5311,0.4402,"Harvey Mudd College, Claremont, CA",34.10614005,-117.7087281497148,Stable,3,483,30,494843095.506,683137991.436
117140,University of La Verne,La Verne,CA,Not applicable,0.7136,0.5832,0.4952,0.60012,"University of La Verne, La Verne, CA",34.09986360000001,-117.7726224705835,Strong,6,123,30,161218312.251,353791202.718
120403,Otis College of Art and Design,Los Angeles,CA,Not applicable,0.3978,0.4048,0.4892,0.43579,"Otis College of Art and Design, Los Angeles, CA",33.95673905,-118.4171692394095,Stable,3,505,30,29507385.134,76653162.358
121257,Pitzer College,Claremont,CA,Not applicable,0.4192,0.4133,0.5012,0.45085,"Pitzer College, Claremont, CA",34.10471765,-117.7050428284479,Stable,3,423,30,192351775.922,294108546.981
121691,University of Redlands,Redlands,CA,Not applicable,0.342,0.5632,0.5028,0.4505599999999999,"University of Redlands, Redlands, CA",34.0635903,-117.1638542075837,Stable,3,425,30,298562069.858,417846725.239
126678,Colorado College,Colorado Springs,CO,Not applicable,0.6033,0.4478999999999999,0.5243,0.54063,"Colorado College, Colorado Springs, CO",38.8480439,-104.8239509314005,Strong,6,180,5,921061721.661,1295124899.542
127653,Naropa University,Boulder,CO,Not applicable,0.2502,0.3994,0.4813,0.37252,"Naropa University, Boulder, CO",40.01407945,-105.2669594376209,Critical,0,799,5,1538815.362,7568274.901
128902,Connecticut College,New London,CT,Not applicable,0.7044,0.4317,0.508,0.5713,"Connecticut College, New London, CT",41.37913335,-72.10653061495535,Strong,6,148,14,508706675.169,697523775.094
129154,Goodwin University,East Hartford,CT,Not applicable,0.2963,0.5032,0.5124,0.42414,"Goodwin University, East Hartford, CT",41.74144325,-72.63784988620363,Vulnerable,2,572,14,17127221.419,311842565.207
129774,Mitchell College,New London,CT,Not applicable,0.2663,0.3932,0.4888,0.38072,"Mitchell College, New London, CT",41.32765375,-72.09621002993681,Critical,0,764,14,6339005.442,23547998.746
129941,University of New Haven,West Haven,CT,Not applicable,0.9401,0.7019,0.4876,0.7113700000000001,"University of New Haven, West Haven, CT",41.29091365,-72.96263883692575,Elite,7,64,14,108510528.886,308447681.017
130226,Quinnipiac University,Hamden,CT,Not applicable,0.958,0.8018000000000001,0.504,0.7450600000000001,"Quinnipiac University, Hamden, CT",41.41819485000001,-72.8931049147314,Elite,7,45,14,919249210.086,1687998274.251
130697,Wesleyan University,Middletown,CT,Not applicable,0.7831999999999999,0.4907999999999999,0.5207,0.6197,"Wesleyan University, Middletown, CT",41.5559033,-72.65598837890627,Strong,6,109,14,2067888723.01,2254450571.809
130989,Goldey-Beacom College,Wilmington,DE,Not applicable,0.3064,0.4257999999999999,0.6539,0.46936,"Goldey-Beacom College, Wilmington, DE",,,Secure,4,353,2,188527989.804,243911743.345
131113,Wilmington University,New Castle,DE,Not applicable,0.3718,0.7981,0.5104,0.51246,"Wilmington University, New Castle, DE",39.68213315,-75.58699781308974,Healthy,5,240,2,196831987.472,338402446.397
133553,Embry-Riddle Aeronautical University-Daytona Beach,Daytona Beach,FL,Not applicable,0.9987,0.6285000000000001,0.5075999999999999,0.72815,"Embry-Riddle Aeronautical University-Daytona Beach, Daytona Beach, FL",29.19175315,-81.04958387456502,Elite,7,55,30,433488723.024,1537872382.512
133711,Flagler College,Saint Augustine,FL,Not applicable,0.7306999999999999,0.4640999999999999,0.4928,0.5821999999999999,"Flagler College, Saint Augustine, FL",29.89194365,-81.32156855386452,Strong,6,136,30,29884691.996,205623954.493
133881,Florida Institute of Technology,Melbourne,FL,Not applicable,0.8384,0.7023,0.4984,0.67511,"Florida Institute of Technology, Melbourne, FL",28.064271,-80.6230040282868,Elite,7,82,30,113778143.62,337219137.929
135726,University of Miami,Coral Gables,FL,Not applicable,0.9987,0.9517,0.4884,0.7850400000000001,"University of Miami, Coral Gables, FL",25.71727245,-80.2787068732586,Elite,7,19,30,1723415781.048,5024327321.165
136215,Nova Southeastern University,Fort Lauderdale,FL,Not applicable,0.9987,0.9221,0.4896,0.7796,"Nova Southeastern University, Fort Lauderdale, FL",26.08757885,-80.14968855039686,Elite,7,25,30,272852556.471,1363005253.594
136774,Ringling College of Art and Design,Sarasota,FL,Not applicable,0.6129,0.4329,0.4968,0.53046,"Ringling College of Art and Design, Sarasota, FL",27.36000665,-82.5464064763355,Strong,6,194,30,74236996.344,284134202.919
136950,Rollins College,Winter Park,FL,Not applicable,0.7256999999999999,0.4892,0.5028,0.58922,"Rollins College, Winter Park, FL",28.5925001,-81.3489577,Strong,6,132,30,533397975.916,725088388.035
137546,Stetson University,DeLand,FL,Not applicable,0.5044,0.5318999999999999,0.4992,0.50781,"Stetson University, DeLand, FL",29.03653465,-81.30054111521412,Healthy,5,249,30,421441570.603,608516611.076
137847,The University of Tampa,Tampa,FL,Not applicable,0.9987,0.7304,0.4976,0.7445,"The University of Tampa, Tampa, FL",,,Elite,7,46,30,71056543.988,956528570.545
138293,Webber International University,Babson Park,FL,Not applicable,0.4412,0.3936,0.4463,0.4337299999999999,"Webber International University, Babson Park, FL",,,Stable,3,517,30,8025641.727,18287648.283
139199,Brenau University,Gainesville,GA,Not applicable,0.3874,0.4753,0.498,0.44924,"Brenau University, Gainesville, GA",34.30369005,-83.82235377891529,Stable,3,434,26,65027027.263,135962780.061
140252,Life University,Marietta,GA,Not applicable,0.4136999999999999,0.4753,0.4821,0.4533899999999999,"Life University, Marietta, GA",33.9311113,-84.51740878177948,Secure,4,416,26,5682515.938,30163606.503
141060,Spelman College,Atlanta,GA,Not applicable,0.9107,0.4700999999999999,0.5824,0.69125,"Spelman College, Atlanta, GA",33.74508885,-84.41138326759426,Elite,7,77,26,603817315.816,1067484725.771
141167,Thomas University,Thomasville,GA,Not applicable,0.4864,0.461,0.4968,0.48549,"Thomas University, Thomasville, GA",30.8151379,-83.96435262333654,Healthy,5,297,26,7590070.348,20132489.014
141644,Hawaii Pacific University,Honolulu,HI,Not applicable,0.5811999999999999,0.4172,0.4813,0.50844,"Hawaii Pacific University, Honolulu, HI",21.37952275,-157.7830819456748,Healthy,5,248,3,47526999.914,40016509.01
143048,School of the Art Institute of Chicago,Chicago,IL,Not applicable,0.5871,0.494,0.5394,0.5494,"School of the Art Institute of Chicago, Chicago, IL",41.8812522,-87.62697448192992,Strong,6,169,42,1663007082.791,1981619624.368
143358,Bradley University,Peoria,IL,Not applicable,0.6675,0.5820000000000001,0.4943999999999999,0.58113,"Bradley University, Peoria, IL",40.6981131,-89.61551386208208,Strong,6,137,42,424914234.362,548607987.907
144281,Columbia College Chicago,Chicago,IL,Not applicable,0.9608,0.4904,0.4829,0.67551,"Columbia College Chicago, Chicago, IL",41.8742404,-87.6247913,Elite,7,81,42,188906272.005,152841053.143
145646,Illinois Wesleyan University,Bloomington,IL,Not applicable,0.457,0.4235,0.508,0.47072,"Illinois Wesleyan University, Bloomington, IL",40.49242715,-88.99042108232373,Secure,4,346,42,280247494.094,319035575.709
145725,Illinois Institute of Technology,Chicago,IL,Not applicable,0.5351,0.5584,0.4856,0.51994,"Illinois Institute of Technology, Chicago, IL",41.83616405,-87.62647227745128,Healthy,5,223,42,325075410.805,370980480.438
147536,National Louis University,Chicago,IL,Not applicable,0.6679,0.6776000000000001,0.4964,0.60119,"National Louis University, Chicago, IL",41.87990865,-87.62490237384526,Strong,6,121,42,100934774.345,148044902.702
147767,Northwestern University,Evanston,IL,Not applicable,0.9939,0.9987,0.5168,0.80388,"Northwestern University, Evanston, IL",42.0557157,-87.67529454739416,Elite,7,6,42,12880933215.568,17977971856.063
148405,Rockford University,Rockford,IL,Not applicable,0.3383,0.4145,0.4996,0.4180899999999999,"Rockford University, Rockford, IL",42.2683388,-89.01867338002917,Vulnerable,2,598,42,15493682.185,56428270.803
148487,Roosevelt University,Chicago,IL,Not applicable,0.627,0.5275,0.4813,0.5488000000000001,"Roosevelt University, Chicago, IL",41.87613485,-87.6251816505098,Strong,6,170,42,165398539.195,37968927.428
149639,VanderCook College of Music,Chicago,IL,Not applicable,0.246,0.3821,0.4907999999999999,0.37119,"VanderCook College of Music, Chicago, IL",41.83676195,-87.6291654,Critical,0,804,42,417105.677,8998964.044
150163,Butler University,Indianapolis,IN,Not applicable,0.9385,0.5937,0.4976,0.69312,"Butler University, Indianapolis, IN",39.8407191,-86.17374943464814,Elite,7,76,23,310796684.426,629450712.985
151290,Indiana Institute of Technology,Fort Wayne,IN,Not applicable,0.4992,0.4157,0.5068,0.48556,"Indiana Institute of Technology, Fort Wayne, IN",41.07754835,-85.11768473673075,Healthy,5,296,23,201715108.596,320167221.816
152673,Wabash College,Crawfordsville,IN,Not applicable,0.3932,0.4048,0.5501,0.45832,"Wabash College, Crawfordsville, IN",40.0367517,-86.90726990345898,Secure,4,398,23,432729804.686,619640191.947
153269,Drake University,Des Moines,IA,Not applicable,0.537,0.5462,0.5191,0.53167,"Drake University, Des Moines, IA",41.60307425,-93.6552753180374,Strong,6,193,25,309201195.819,570704733.766
153384,Grinnell College,Grinnell,IA,Not applicable,0.4384,0.4321,0.6037,0.50331,"Grinnell College, Grinnell, IA",41.75111985,-92.71984863278584,Healthy,5,258,25,3224894489.096,3597361821.383
153861,Maharishi International University,Fairfield,IA,Not applicable,0.2517,0.4836,0.4876,0.39246,"Maharishi International University, Fairfield, IA",41.023532,-91.96396696626836,At-Risk,1,725,25,12736028.451,77736942.672
154493,Upper Iowa University,Fayette,IA,Not applicable,0.2939,0.4629999999999999,0.4785,0.40158,"Upper Iowa University, Fayette, IA",42.83958545,-91.7933042901662,At-Risk,1,673,25,23053650.922,8128006.879
155937,Sterling College,Sterling,KS,Not applicable,0.2905,0.3848,0.4896,0.38904,"Sterling College, Sterling, KS",38.2199775,-98.20912245441116,Critical,0,738,17,6857264.81,27292660.517
155937,Sterling College,Sterling,KS,Not applicable,0.2905,0.3848,0.4896,0.38904,"Sterling College, Sterling, KS",38.2199775,-98.20912245441116,Critical,0,738,17,1123380.243,6579179.953
156189,Alice Lloyd College,Pippa Passes,KY,Not applicable,0.3046999999999999,0.3817,0.5761,0.42873,"Alice Lloyd College, Pippa Passes, KY",37.3362011,-82.87339228684898,Vulnerable,2,546,16,69414111.092,189980385.226
160755,Tulane University of Louisiana,New Orleans,LA,Not applicable,0.9365,0.8659,0.4968,0.74638,"Tulane University of Louisiana, New Orleans, LA",29.95794375,-90.07785846248962,Elite,7,44,8,2472102985.898,3164605920.789
160959,College of the Atlantic,Bar Harbor,ME,Not applicable,0.2653,0.3897,0.5175,0.3911099999999999,"College of the Atlantic, Bar Harbor, ME",44.39407415,-68.21999264324018,At-Risk,1,729,9,85338812.982,143912197.518
161004,Bowdoin College,Brunswick,ME,Not applicable,0.4172,0.4416,0.5643,0.4809599999999999,"Bowdoin College, Brunswick, ME",43.90869735,-69.96142281131719,Healthy,5,312,9,3390107464.624,3467238061.202
161022,Maine College of Health Professions,Lewiston,ME,Not applicable,0.2392,0.3928,0.0013,0.17466,"Maine College of Health Professions, Lewiston, ME",,,Critical,0,843,9,-36751680886.777,17833075.673
161086,Colby College,Waterville,ME,Not applicable,0.5004,0.4558,0.5219,0.5001,"Colby College, Waterville, ME",44.5684775,-69.66002565150262,Healthy,5,266,9,1369901768.402,2291892559.994
161457,University of New England,Biddeford,ME,Not applicable,0.4618,0.5667,0.5064,0.50061,"University of New England, Biddeford, ME",43.4591747,-70.38622144492447,Healthy,5,262,9,373554532.241,676824493.292
161509,Maine College of Art & Design,Portland,ME,Not applicable,0.2736,0.3932,0.4916,0.38476,"Maine College of Art & Design, Portland, ME",,,Critical,0,748,9,18319063.002,39789848.7
161563,Thomas College,Waterville,ME,Not applicable,0.3007999999999999,0.4094,0.5015999999999999,0.4028799999999999,"Thomas College, Waterville, ME",44.5223921,-69.66334775027758,At-Risk,1,664,9,25379289.848,80217209.352
162061,Capitol Technology University,Laurel,MD,Not applicable,0.3468,0.3994,0.5,0.4186399999999999,"Capitol Technology University, Laurel, MD",39.04698215,-76.85145270190938,Vulnerable,2,594,13,6417286.354,26741644.703
162654,Goucher College,Baltimore,MD,Not applicable,0.3871,0.4321,0.5084000000000001,0.44465,"Goucher College, Baltimore, MD",39.408995,-76.59287091567526,Stable,3,456,13,269427621.691,342940676.996
162928,Johns Hopkins University,Baltimore,MD,Not applicable,0.9934,0.9987,0.5068,0.79967,"Johns Hopkins University, Baltimore, MD",39.33020225,-76.62185357858337,Elite,7,9,13,15731249065.999,23225820663.452
163295,Maryland Institute College of Art,Baltimore,MD,Not applicable,0.3597999999999999,0.4733,0.4988,0.4381199999999999,"Maryland Institute College of Art, Baltimore, MD",39.3050505,-76.61976099495374,Stable,3,495,13,131457371.853,224138833.061
163976,St. John's College,Annapolis,MD,Not applicable,0.3500999999999999,0.3967,0.5335,0.43283,"St. John's College, Annapolis, MD",38.98228315,-76.49223748074706,Stable,3,520,13,281900839.615,483667396.79
164173,Stevenson University,Owings Mills,MD,Not applicable,0.884,0.5028,0.4932,0.6514,"Stevenson University, Owings Mills, MD",39.4272656,-76.77650761968783,Elite,7,89,13,141828815.066,226396983.611
164216,Washington College,Chestertown,MD,Not applicable,0.389,0.4036,0.5186999999999999,0.44384,"Washington College, Chestertown, MD",39.218376,-76.06925670472985,Stable,3,461,13,350849086.038,456282885.895
164270,McDaniel College,Westminster,MD,Not applicable,0.6187,0.484,0.4996,0.54411,"McDaniel College, Westminster, MD",39.58516815,-77.00372758695082,Strong,6,178,13,165073595.114,212791159.169
164447,American International College,Springfield,MA,Not applicable,0.3442,0.4257999999999999,0.4911999999999999,0.41935,"American International College, Springfield, MA",42.11339535,-72.55728564424604,Vulnerable,2,593,51,36829041.274,72854871.478
164739,Bentley University,Waltham,MA,Not applicable,0.7967,0.5710000000000001,0.5092,0.63652,"Bentley University, Waltham, MA",42.3834189,-71.2225864285891,Elite,7,98,51,404462823.158,694526761.137
164748,Berklee College of Music,Boston,MA,Not applicable,0.9337,0.6922,0.49,0.70784,"Berklee College of Music, Boston, MA",42.3483475,-71.08487040303883,Elite,7,67,51,430083153.558,586532508.778
164872,Boston Architectural College,Boston,MA,Not applicable,0.2445,0.4000999999999999,0.4884,0.37322,"Boston Architectural College, Boston, MA",42.3484696,-71.08575407316081,Critical,0,798,51,9361960.99,22760687.626
164988,Boston University,Boston,MA,Not applicable,0.9987,0.9987,0.5124,0.80403,"Boston University, Boston, MA",42.3504215,-71.10322831831216,Elite,7,5,51,4150309241.615,7970951403.429
165015,Brandeis University,Waltham,MA,Not applicable,0.6981,0.5979,0.508,0.60198,"Brandeis University, Waltham, MA",42.36650945,-71.2580196483813,Strong,6,120,51,1436986849.546,1649308678.16
165334,Clark University,Worcester,MA,Not applicable,0.5402,0.5489,0.4964,0.52441,"Clark University, Worcester, MA",42.25146814999999,-71.82295086144981,Strong,6,206,51,519220197.404,568740820.07
165529,Curry College,Milton,MA,Not applicable,0.4589999999999999,0.4451,0.4896,0.46847,"Curry College, Milton, MA",42.2378786,-71.114711547038,Secure,4,357,51,68513312.839,105082417.59
165574,Dean College,Franklin,MA,Not applicable,0.3564,0.4118,0.4907999999999999,0.42127,"Dean College, Franklin, MA",42.08465314999999,-71.39983777231043,Vulnerable,2,582,51,79605741.072,83731224.292
165699,Endicott College,Beverly,MA,Not applicable,0.7037,0.5347,0.4992,0.58807,"Endicott College, Beverly, MA",42.55406905,-70.8441366229226,Strong,6,133,51,168494830.395,471755610.744
165802,Fisher College,Boston,MA,Not applicable,0.3231,0.4067,0.504,0.41222,"Fisher College, Boston, MA",42.3553679,-71.07373780610305,Vulnerable,2,626,51,56229481.464,64369921.171
165884,Benjamin Franklin Cummings Institute of Technology,Boston,MA,Not applicable,0.2922,0.4125,0.4832,0.39269,"Benjamin Franklin Cummings Institute of Technology, Boston, MA",,,At-Risk,1,723,51,4214399.228,7986959.76
166018,Hampshire College,Amherst,MA,Not applicable,0.3285,0.3817,0.4689,0.39533,"Hampshire College, Amherst, MA",42.32502175,-72.52940222329684,At-Risk,1,713,51,-19383323.328,33281776.317
166027,Harvard University,Cambridge,MA,Not applicable,0.9307,0.9987,0.9987,0.97151,"Harvard University, Cambridge, MA",42.36574324999999,-71.12221394207614,Elite,7,1,51,1576052002.779,1665480298.705
166391,Lasell University,Newton,MA,Not applicable,0.3282,0.457,0.4813,0.41522,"Lasell University, Newton, MA",42.34106865,-71.24859630298465,Vulnerable,2,611,51,52201231.36,10812499.344
166452,Lesley University,Cambridge,MA,Not applicable,0.2537,0.4534,0.5032,0.39347,"Lesley University, Cambridge, MA",42.3864348,-71.1190947,At-Risk,1,718,51,220657839.815,296044314.477
166656,MCPHS University,Boston,MA,Not applicable,0.4813,0.7201000000000001,0.5489,0.55607,"MCPHS University, Boston, MA",,,Strong,6,159,51,68860973.745,2512878601.434
166683,Massachusetts Institute of Technology,Cambridge,MA,Not applicable,0.7706999999999999,0.8248000000000001,0.5765,0.70377,"Massachusetts Institute of Technology, Cambridge, MA",42.3582529,-71.0966272383055,Elite,7,69,51,32355542457.569,45600216105.616
166911,Montserrat College of Art,Beverly,MA,Not applicable,0.2562,0.3867,0.4852,0.37394,"Montserrat College of Art, Beverly, MA",,,Critical,0,794,51,6359979.901,11586756.056
166939,Mount Holyoke College,South Hadley,MA,Not applicable,0.5156000000000001,0.4538,0.5378000000000001,0.51214,"Mount Holyoke College, South Hadley, MA",42.25532845,-72.56966884397315,Healthy,5,241,51,1267179695.82,1370165323.219
167057,The New England Conservatory of Music,Boston,MA,Not applicable,0.263,0.4149,0.5128,0.39334,"The New England Conservatory of Music, Boston, MA",,,At-Risk,1,720,51,173969926.286,240146400.264
167260,Nichols College,Dudley,MA,Not applicable,0.4039999999999999,0.4329,0.4932,0.44548,"Nichols College, Dudley, MA",42.0418482,-71.92971577727883,Stable,3,451,51,37936705.839,97396848.69
167358,Northeastern University,Boston,MA,Not applicable,0.9981,0.9987,0.494,0.79643,"Northeastern University, Boston, MA",42.33510525,-71.08925787470238,Elite,7,12,51,2526420354.964,5629633690.711
167783,Simmons University,Boston,MA,Not applicable,0.3882,0.6862,0.49,0.48849,"Simmons University, Boston, MA",42.33893544999999,-71.10043183883623,Healthy,5,288,51,260552242.728,257683867.375
167899,Springfield College,Springfield,MA,Not applicable,0.4125,0.4813,0.4892,0.45695,"Springfield College, Springfield, MA",42.10284205,-72.55671489399984,Secure,4,402,51,121427195.675,169906020.514
168005,Suffolk University,Boston,MA,Not applicable,0.7737,0.5878,0.486,0.62139,"Suffolk University, Boston, MA",42.3567011,-71.06105776439689,Strong,6,108,51,263605075.129,285680989.254
168148,Tufts University,Medford,MA,Not applicable,0.9516,0.8588,0.5047999999999999,0.7542,"Tufts University, Medford, MA",42.40649125,-71.11800725402092,Elite,7,38,51,3201484980.039,4174134391.164
168218,Wellesley College,Wellesley,MA,Not applicable,0.4992,0.4565999999999999,0.5553,0.51315,"Wellesley College, Wellesley, MA",42.29177605,-71.3032751636105,Healthy,5,239,51,3868170467.338,3676641017.501
168227,Wentworth Institute of Technology,Boston,MA,Not applicable,0.6668000000000001,0.5156000000000001,0.4916,0.56646,"Wentworth Institute of Technology, Boston, MA",42.33657245000001,-71.0953729508291,Strong,6,155,51,188620289.709,296005110.902
168254,Western New England University,Springfield,MA,Not applicable,0.5569,0.5124,0.4888,0.52075,"Western New England University, Springfield, MA",42.1125825,-72.51478135708936,Healthy,5,221,51,77043321.444,159955338.08
168342,Williams College,Williamstown,MA,Not applicable,0.5088,0.4542,0.5753,0.52451,"Williams College, Williamstown, MA",42.7130236,-73.2030082,Strong,6,205,51,4486955830.355,5151959977.823
168421,Worcester Polytechnic Institute,Worcester,MA,Not applicable,0.8739,0.6353,0.4924,0.6735099999999999,"Worcester Polytechnic Institute, Worcester, MA",42.274315,-71.80845674552586,Elite,7,84,51,661633876.064,850305423.419
169327,Cleary University,Howell,MI,Not applicable,0.2837,0.4443,0.4825,0.39537,"Cleary University, Howell, MI",42.58746595,-83.88048112861308,At-Risk,1,712,24,2148843.219,9283535.004
169442,College for Creative Studies,Detroit,MI,Not applicable,0.4004999999999999,0.4160999999999999,0.5072,0.44633,"College for Creative Studies, Detroit, MI",42.36128,-83.06304456769371,Stable,3,445,24,95817210.082,227459596.712
169479,Davenport University,Grand Rapids,MI,Not applicable,0.4772999999999999,0.5203,0.4829,0.48813,"Davenport University, Grand Rapids, MI",42.84920905,-85.53130919554428,Healthy,5,290,24,0.0,64351493.237
170532,Kalamazoo College,Kalamazoo,MI,Not applicable,0.4407999999999999,0.4219,0.5092,0.4644,"Kalamazoo College, Kalamazoo, MI",42.29075735,-85.59936465969835,Secure,4,374,24,338804828.182,378498822.701
170675,Lawrence Technological University,Southfield,MI,Not applicable,0.4709,0.4447,0.4892,0.47299,"Lawrence Technological University, Southfield, MI",42.4752647,-83.25063727571097,Secure,4,339,24,54783985.461,124198663.343
171492,Northwood University,Midland,MI,Not applicable,0.4086999999999999,0.4717,0.5044,0.4596,"Northwood University, Midland, MI",43.6311535,-84.27681755477265,Secure,4,391,24,114060570.806,292446731.131
173258,Carleton College,Northfield,MN,Not applicable,0.6022,0.4435,0.5497,0.54948,"Carleton College, Northfield, MN",44.4612233,-93.1557163,Strong,6,168,23,1435626560.522,1894585595.485
174127,Minneapolis College of Art and Design,Minneapolis,MN,Not applicable,0.3431,0.3974,0.3468,0.3554299999999999,"Minneapolis College of Art and Design, Minneapolis, MN",44.9566921,-93.27433002725542,Critical,0,832,23,49783303.079,78109602.681
174507,Northwestern Health Sciences University,Bloomington,MN,Not applicable,0.2435,0.4079,0.4947999999999999,0.37694,"Northwestern Health Sciences University, Bloomington, MN",44.8504407,-93.31183907344057,Critical,0,780,23,14869973.907,31463528.415
175227,Dunwoody College of Technology,Minneapolis,MN,Not applicable,0.5434,0.4364,0.5318999999999999,0.51742,"Dunwoody College of Technology, Minneapolis, MN",44.9731679,-93.29066773372568,Healthy,5,228,23,130298819.49,221798731.882
177038,Cleveland University-Kansas City,Overland Park,KS,Not applicable,0.2398,0.3913,0.4664999999999999,0.36082,"Cleveland University-Kansas City, Overland Park, KS",38.9322187,-94.67974333842892,Critical,0,826,17,881135.099,36579459.525
177117,Cottey College,Nevada,MO,Not applicable,0.2647,0.3806,0.6498999999999999,0.44205,"Cottey College, Nevada, MO",37.8365603,-94.37114356505388,Stable,3,468,29,127187668.647,139831877.292
177746,Kansas City Art Institute,Kansas City,MO,Not applicable,0.3564,0.3939999999999999,0.5015999999999999,0.42204,"Kansas City Art Institute, Kansas City, MO",39.04669785,-94.58317495871825,Vulnerable,2,580,29,83241950.731,150548887.234
178721,Park University,Parkville,MO,Not applicable,0.2943,0.6319,0.5092,0.44778,"Park University, Parkville, MO",39.18900875,-94.6725289414734,Stable,3,439,29,60771057.79,175237047.034
178891,Ranken Technical College,Saint Louis,MO,Not applicable,0.5553,0.4633,0.5199,0.5227499999999999,"Ranken Technical College, Saint Louis, MO",38.6534824,-90.24921783355836,Healthy,5,215,29,15626770.275,129035989.499
179265,University of Health Sciences and Pharmacy in St. Louis,Saint Louis,MO,Not applicable,0.2803,0.4192,0.5096,0.39984,"University of Health Sciences and Pharmacy in St. Louis, Saint Louis, MO",38.63708455,-90.2609963703083,At-Risk,1,689,29,127685689.645,144165274.695
179548,Stephens College,Columbia,MO,Not applicable,0.263,0.3928,0.5112,0.38829,"Stephens College, Columbia, MO",38.9505943,-92.3229551,Critical,0,741,29,50025177.76,108310822.525
179867,Washington University in St Louis,Saint Louis,MO,Not applicable,0.9455,0.9522,0.506,0.77091,"Washington University in St Louis, Saint Louis, MO",38.64724015,-90.3084017158684,Elite,7,31,29,14013231693.517,20853552846.551
179894,Webster University,Saint Louis,MO,Not applicable,0.3886,0.4017,0.4892,0.43149,"Webster University, Saint Louis, MO",38.62831,-90.19291581871602,Vulnerable,2,529,29,107255739.062,117585855.848
179955,William Jewell College,Liberty,MO,Not applicable,0.3173999999999999,0.397,0.4928,0.40352,"William Jewell College, Liberty, MO",39.2513794,-94.41122222903628,At-Risk,1,661,29,70211944.468,69919837.881
180054,Blackfeet Community College,Browning,MT,Not applicable,0.2435,0.3745,0.508,0.37555,"Blackfeet Community College, Browning, MT",48.5523,-113.0087867459745,Critical,0,789,3,0.0,37282792.286
182634,Colby-Sawyer College,New London,NH,Not applicable,0.2733,0.3974,0.5096,0.39269,"Colby-Sawyer College, New London, NH",43.4141177,-71.97532444047863,At-Risk,1,723,7,95657665.093,154704549.526
182670,Dartmouth College,Hanover,NH,Not applicable,0.6606000000000001,0.6495000000000001,0.2673,0.50094,"Dartmouth College, Hanover, NH",43.7033798,-72.28860224553567,Healthy,5,261,7,10766698370.633,13616063894.734
182795,Franklin Pierce University,Rindge,NH,Not applicable,0.268,0.4424,0.4876,0.39075,"Franklin Pierce University, Rindge, NH",42.7793366,-72.0558917,At-Risk,1,730,7,31088603.885,60329972.377
183026,Southern New Hampshire University,Manchester,NH,Not applicable,0.9987,0.9987,0.492,0.7958700000000001,"Southern New Hampshire University, Manchester, NH",43.0374605,-71.44783921922284,Elite,7,13,7,81544270.668,1752657320.438
184603,Fairleigh Dickinson University-Metropolitan Campus,Teaneck,NJ,Not applicable,0.6263000000000001,0.5036,0.484,0.54482,"Fairleigh Dickinson University-Metropolitan Campus, Teaneck, NJ",40.89807275,-74.0307211402726,Strong,6,176,15,116018989.104,151030601.57
185572,Monmouth University,West Long Branch,NJ,Not applicable,0.7598999999999999,0.575,0.5104,0.62308,"Monmouth University, West Long Branch, NJ",40.27941055,-74.00680219986127,Elite,7,104,15,190129023.154,423375467.34
186283,Rider University,Lawrenceville,NJ,Not applicable,0.6406000000000001,0.5271,0.4793,0.55335,"Rider University, Lawrenceville, NJ",,,Strong,6,163,15,93105354.465,-50810048.995
186867,Stevens Institute of Technology,Hoboken,NJ,Not applicable,0.8588,0.7852,0.4936,0.6979099999999999,"Stevens Institute of Technology, Hoboken, NJ",40.7448096,-74.0252392276461,Elite,7,73,15,408436918.291,779691692.079
188340,Vaughn College of Aeronautics and Technology,Flushing,NY,Not applicable,0.2943,0.4118,0.4832,0.3933899999999999,"Vaughn College of Aeronautics and Technology, Flushing, NY",,,At-Risk,1,719,75,8421261.986,18594350.81
188429,Adelphi University,Garden City,NY,Not applicable,0.7916,0.6855,0.4907999999999999,0.64999,"Adelphi University, Garden City, NY",40.7197638,-73.65197185396391,Elite,7,91,75,264599037.715,421845976.44
188526,Albany College of Pharmacy and Health Sciences,Albany,NY,Not applicable,0.2736,0.4102,0.488,0.3867199999999999,"Albany College of Pharmacy and Health Sciences, Albany, NY",42.64943435,-73.77661197493438,Critical,0,744,75,69742501.174,75155278.158
189097,Barnard College,New York,NY,Not applicable,0.5679,0.4813,0.4964,0.52198,"Barnard College, New York, NY",40.8094864,-73.96355097608796,Healthy,5,219,75,528864904.615,775792498.991
189413,Boricua College,New York,NY,Not applicable,0.2507999999999999,0.3928,0.5108,0.38325,"Boricua College, New York, NY",40.7013535,-73.942403,Critical,0,755,75,75000.0,10626107.519
190044,Clarkson University,Potsdam,NY,Not applicable,0.4507,0.5335,0.4968,0.4857,"Clarkson University, Potsdam, NY",44.65958875,-75.00623974830918,Healthy,5,295,75,254974816.654,377833210.514
190099,Colgate University,Hamilton,NY,Not applicable,0.6037,0.4789,0.5203,0.54538,"Colgate University, Hamilton, NY",42.8154037,-75.53958155911818,Strong,6,175,75,1458814265.897,1788800965.446
190114,Metropolitan College of New York,New York,NY,Not applicable,0.2457,0.3989999999999999,0.4412,0.35459,"Metropolitan College of New York, New York, NY",40.8152756,-73.9153259,Critical,0,833,75,993442.477,-5046575.546
190150,Columbia University in the City of New York,New York,NY,Not applicable,0.8626,0.9987,0.5084000000000001,0.7480100000000001,"Columbia University in the City of New York, New York, NY",40.80775585,-73.96161411567529,Elite,7,41,75,16951370243.68,22347278783.937
190372,The Cooper Union for the Advancement of Science and Art,New York,NY,Not applicable,0.3137999999999999,0.4067,0.5323,0.41983,"The Cooper Union for the Advancement of Science and Art, New York, NY",,,Vulnerable,2,587,75,1008925583.794,964961728.021
190415,Cornell University,Ithaca,NY,Not applicable,0.9987,0.9962,0.5052,0.80065,"Cornell University, Ithaca, NY",42.4529076,-76.48008423030923,Elite,7,8,75,10458861072.035,15722650828.117
190725,Daemen University,Amherst,NY,Not applicable,0.3867,0.4952,0.488,0.44893,"Daemen University, Amherst, NY",,,Stable,3,435,75,24808715.715,53061446.624
190983,Elmira College,Elmira,NY,Not applicable,0.2847,0.3821,0.5299,0.40231,"Elmira College, Elmira, NY",42.0944203,-76.81553824542168,At-Risk,1,667,75,12794399.229,80407312.111
191533,Hartwick College,Oneonta,NY,Not applicable,0.3737,0.3982,0.4832,0.42243,"Hartwick College, Oneonta, NY",42.45997815,-75.07146882680061,Vulnerable,2,577,75,5113340.035,35049962.234
191649,Hofstra University,Hempstead,NY,Not applicable,0.8967,0.7602,0.4992,0.7103100000000001,"Hofstra University, Hempstead, NY",40.71690825,-73.60002245039347,Elite,7,66,75,1052604456.551,1323574305.194
191968,Ithaca College,Ithaca,NY,Not applicable,0.6251,0.5611999999999999,0.5132,0.5675399999999999,"Ithaca College, Ithaca, NY",42.41970354999999,-76.49833484728887,Strong,6,153,75,472591752.237,764861653.664
192110,The Juilliard School,New York,NY,Not applicable,0.266,0.4160999999999999,0.575,0.41968,"The Juilliard School, New York, NY",40.7738393,-73.9831016,Vulnerable,2,588,75,1572716706.269,1622186942.691
192448,Long Island University,Brookville,NY,Not applicable,0.6584,0.8884000000000001,0.5108,0.64527,"Long Island University, Brookville, NY",40.820249,-73.59671333637571,Elite,7,95,75,554577611.264,1120967686.504
192712,Manhattan School of Music,New York,NY,Not applicable,0.3001,0.427,0.5152,0.41156,"Manhattan School of Music, New York, NY",40.8125642,-73.96129536937597,Vulnerable,2,629,75,37562615.387,102012677.225
193654,The New School,New York,NY,Not applicable,0.8034,0.7353000000000001,0.4868,0.66306,"The New School, New York, NY",40.73547915,-73.9970708835668,Elite,7,86,75,515441814.265,598661608.305
193900,New York University,New York,NY,Not applicable,0.9987,0.9987,0.486,0.7934699999999999,"New York University, New York, NY",40.7292053,-73.99501481290962,Elite,7,16,75,6034706438.394,9551573965.293
194091,New York Institute of Technology,Old Westbury,NY,Not applicable,0.5913,0.5867,0.4936,0.55127,"New York Institute of Technology, Old Westbury, NY",40.80795904999999,-73.60628896763087,Strong,6,164,75,91086998.448,333619944.249
194116,New York School of Interior Design,New York,NY,Not applicable,0.2502,0.4032,0.5179,0.38793,"New York School of Interior Design, New York, NY",40.76854419999999,-73.96247825598766,Critical,0,742,75,24126324.141,63509958.531
194310,Pace University,New York,NY,Not applicable,0.9468,0.8320000000000001,0.486,0.7394,"Pace University, New York, NY",40.7111164,-74.00480443918846,Elite,7,48,75,289332378.422,659036258.969
194392,Paul Smiths College of Arts and Science,Paul Smiths,NY,Not applicable,0.2908,0.3974,0.4992,0.39552,"Paul Smiths College of Arts and Science, Paul Smiths, NY",,,At-Risk,1,711,75,41336791.612,63474236.657
194578,Pratt Institute-Main,Brooklyn,NY,Not applicable,0.6395000000000001,0.5632,0.5088,0.57194,"Pratt Institute-Main, Brooklyn, NY",,,Strong,6,147,75,324763136.206,692881480.134
194824,Rensselaer Polytechnic Institute,Troy,NY,Not applicable,0.8812000000000001,0.6837000000000001,0.4964,0.6877,"Rensselaer Polytechnic Institute, Troy, NY",42.7298969,-73.67966781998861,Elite,7,78,75,1069422942.619,1183465472.482
195003,Rochester Institute of Technology,Rochester,NY,Not applicable,0.9987,0.7618,0.5,0.7517400000000001,"Rochester Institute of Technology, Rochester, NY",43.0826701,-77.67293215211362,Elite,7,40,75,1660114774.307,2559570796.358
195030,University of Rochester,Rochester,NY,Not applicable,0.8784000000000001,0.8342,0.4892,0.7137699999999999,"University of Rochester, Rochester, NY",43.129864,-77.62878399245412,Elite,7,63,75,3421576727.583,4991061948.555
195128,Russell Sage College,Troy,NY,Not applicable,0.3068,0.4553999999999999,0.5008,0.41415,"Russell Sage College, Troy, NY",42.7280214,-73.6935695,Vulnerable,2,616,75,53622190.488,92095318.135
195304,Sarah Lawrence College,Bronxville,NY,Not applicable,0.4063,0.4278,0.4924,0.44506,"Sarah Lawrence College, Bronxville, NY",,,Stable,3,453,75,151033949.814,217243056.247
195526,Skidmore College,Saratoga Springs,NY,Not applicable,0.5765,0.4565999999999999,0.5108,0.52624,"Skidmore College, Saratoga Springs, NY",43.09871785354964,-73.78422856497147,Strong,6,202,75,534393004.307,987559691.959
197045,Utica University,Utica,NY,Not applicable,0.4353,0.5339,0.4813,0.47341,"Utica University, Utica, NY",43.09724785,-75.27048436278756,Secure,4,336,75,38580764.922,11402267.915
197133,Vassar College,Poughkeepsie,NY,Not applicable,0.5442,0.4614,0.5191,0.51761,"Vassar College, Poughkeepsie, NY",41.686786,-73.8956971,Healthy,5,227,75,1440949194.175,1723553488.276
197221,Webb Institute,Glen Cove,NY,Not applicable,0.2486,0.3867,0.5303,0.38896,"Webb Institute, Glen Cove, NY",40.8844868,-73.64476966947441,Critical,0,739,75,21167356.575,91784847.996
198516,Elon University,Elon,NC,Not applicable,0.994,0.616,0.502,0.72153,"Elon University, Elon, NC",36.1063398,-79.50273682932499,Elite,7,58,35,388516877.838,1051150181.879
199607,Salem College,Winston-Salem,NC,Not applicable,0.2932,0.389,0.539,0.41073,"Salem College, Winston-Salem, NC",36.0861216,-80.23981471121351,Vulnerable,2,631,35,59004245.141,99430416.148
200527,Turtle Mountain Community College,Belcourt,ND,Not applicable,0.2716,0.3951,0.5843,0.42145,"Turtle Mountain Community College, Belcourt, ND",48.8372,-99.741,Vulnerable,2,581,4,3601672.725,96954045.218
201061,Art Academy of Cincinnati,Cincinnati,OH,Not applicable,0.2696,0.379,0.4836,0.37712,"Art Academy of Cincinnati, Cincinnati, OH",39.10884489999999,-84.51386678960034,Critical,0,779,46,2128607.502,7043626.059
201645,Case Western Reserve University,Cleveland,OH,Not applicable,0.91,0.8146,0.504,0.72842,"Case Western Reserve University, Cleveland, OH",41.50138695,-81.60070216600491,Elite,7,54,46,2328022340.607,3510779608.526
202046,Cleveland Institute of Art,Cleveland,OH,Not applicable,0.2779,0.397,0.4996,0.3904399999999999,"Cleveland Institute of Art, Cleveland, OH",41.5105999,-81.60241351457773,At-Risk,1,733,46,35580116.77,104324926.416
202073,Cleveland Institute of Music,Cleveland,OH,Not applicable,0.2476,0.3924,0.5104,0.38173,"Cleveland Institute of Music, Cleveland, OH",41.51246555,-81.6088220252853,Critical,0,760,46,74075651.385,114820922.278
202170,Columbus College of Art & Design,Columbus,OH,Not applicable,0.2915,0.4036,0.4546,0.3791899999999999,"Columbus College of Art & Design, Columbus, OH",39.9650847,-82.99043195655817,Critical,0,772,46,27872818.458,82031832.622
202523,Denison University,Granville,OH,Not applicable,0.5271,0.4503,0.6509999999999999,0.56135,"Denison University, Granville, OH",40.07300505,-82.52248588003852,Strong,6,156,46,1358437901.167,1630271528.587
202806,Franklin University,Columbus,OH,Not applicable,0.2457,0.6514,0.4952,0.4266299999999999,"Franklin University, Columbus, OH",39.95764844999999,-82.99093046593417,Vulnerable,2,557,46,13488264.2,104676676.187
203580,Lake Erie College,Painesville,OH,Not applicable,0.3103,0.3982,0.4825,0.39679,"Lake Erie College, Painesville, OH",41.7169934,-81.25184131797042,At-Risk,1,705,46,9133171.046,31673729.865
203845,Marietta College,Marietta,OH,Not applicable,0.3560999999999999,0.4129,0.4964,0.42361,"Marietta College, Marietta, OH",39.41609505,-81.4484225136152,Vulnerable,2,573,46,111279865.266,130171606.859
204486,University of Northwestern Ohio,Lima,OH,Not applicable,0.5832,0.4507,0.5219,0.53219,"University of Northwestern Ohio, Lima, OH",40.7617103,-84.16055032215593,Strong,6,192,46,0.0,104121602.804
205203,University of Rio Grande,Rio Grande,OH,Not applicable,0.2847,0.4222999999999999,0.2135999999999999,0.28373,"University of Rio Grande, Rio Grande, OH",38.8788275,-82.376029230075,Critical,0,841,46,23657962.883,37150119.624
206048,Tiffin University,Tiffin,OH,Not applicable,0.4424,0.4478999999999999,0.49,0.46255,"Tiffin University, Tiffin, OH",41.11911195,-83.18558345227916,Secure,4,378,46,25143645.379,76333447.968
209056,Lewis & Clark College,Portland,OR,Not applicable,0.5843,0.4892,0.4972,0.53043,"Lewis & Clark College, Portland, OR",45.44850495,-122.6700383929096,Strong,6,195,11,340541827.839,404052901.574
209922,Reed College,Portland,OR,Not applicable,0.4507,0.4196,0.5263,0.47475,"Reed College, Portland, OR",45.48149925,-122.6310136075346,Secure,4,331,11,889774231.258,1027515868.041
211440,Carnegie Mellon University,Pittsburgh,PA,Not applicable,0.9097,0.9458,0.5128,0.75803,"Carnegie Mellon University, Pittsburgh, PA",40.4441897,-79.94271918393466,Elite,7,37,51,3599248323.453,6888349653.23
211468,Cedar Crest College,Allentown,PA,Not applicable,0.2673,0.4349,0.4984,0.3933,"Cedar Crest College, Allentown, PA",40.5870414,-75.5196287,At-Risk,1,721,51,45490410.894,101640838.105
211981,Delaware Valley University,Doylestown,PA,Not applicable,0.4286,0.4404,0.488,0.45474,"Delaware Valley University, Doylestown, PA",40.29314845,-75.15994121447233,Secure,4,409,51,41054108.162,67760829.733
212054,Drexel University,Philadelphia,PA,Not applicable,0.9866,0.9543,0.4871999999999999,0.78024,"Drexel University, Philadelphia, PA",39.9569305,-75.18992654517834,Elite,7,24,51,1069472319.374,1421467917.429
212577,Franklin and Marshall College,Lancaster,PA,Not applicable,0.4301,0.4514,0.5147999999999999,0.46826,"Franklin and Marshall College, Lancaster, PA",,,Secure,4,358,51,478470289.609,724632741.279
