InstitutionID,University,City,State,Religion,Market_Saturation_Percentile,Academic_Efficiency_Percentile,aCFI_Percentile,Survivability,FullAddress,Quantile_Label,Quantile_Group,Rank,Universities_in_State,Endowment,Net Assets,lat,lon
114813,fresno pacific university,Fresno,CA,Anabaptist,0.3336,0.5474,0.4876,0.43796,"Fresno Pacific University, Fresno, CA",Stable,3,496,30,21720486.097,77542772.038,36.72601005,-119.7341901041148
150668,goshen college,Goshen,IN,Anabaptist,0.3379999999999999,0.4004999999999999,0.4067,0.37799,"Goshen College, Goshen, IN",Critical,0,776,23,149820246.672,218004435.977,41.56248295,-85.82522495563299
150941,huntington university,Huntington,IN,Anabaptist,0.427,0.42,0.494,0.45242,"Huntington University, Huntington, IN",Secure,4,418,23,34673941.021,70698289.685,40.89905155,-85.5022118549875
151777,manchester university,North Manchester,IN,Anabaptist,0.3703,0.4118,0.5056,0.4327499999999999,"Manchester University, North Manchester, IN",Stable,3,521,23,85720776.868,145207221.612,41.01177555,-85.76000953742776
153302,emmaus bible college,Dubuque,IA,Anabaptist,0.2559,0.392,0.6628000000000001,0.44597,"Emmaus Bible College, Dubuque, IA",Stable,3,447,25,1349244.905,13188276.497,42.5087374,-90.7060749086276
155177,hesston college,Hesston,KS,Anabaptist,0.2723,0.3897,0.964,0.57264,"Hesston College, Hesston, KS",Strong,6,146,17,17468889.166,51432811.778,38.13468465,-97.43391833739682
155511,mcpherson college,McPherson,KS,Anabaptist,0.3449,0.4021,0.9049,0.5805,"McPherson College, McPherson, KS",Strong,6,139,17,2330285173.661,3862847276.49,38.37222595,-97.64194995634703
155973,tabor college,Hillsboro,KS,Anabaptist,0.2929,0.3901,0.5211,0.40367,"Tabor College, Hillsboro, KS",At-Risk,1,660,17,29735159.452,78134966.851,38.34564655,-97.19974490220972
201104,ashland university,Ashland,OH,Anabaptist,0.4207,0.5422,0.4996,0.47656,"Ashland University, Ashland, OH",Secure,4,325,46,75206269.854,256201774.167,40.86206715,-82.32557737380854
201371,bluffton university,Bluffton,OH,Anabaptist,0.3068,0.3874,0.5108,0.40457,"Bluffton University, Bluffton, OH",At-Risk,1,658,46,24960838.338,57105648.114,40.8965715,-83.89964803548409
211291,bucknell university,Lewisburg,PA,Anabaptist,0.6901,0.4956,0.5215,0.58375,"Bucknell University, Lewisburg, PA",Strong,6,135,51,1328672194.564,1685427097.347,40.9588852,-76.88191282447514
213251,juniata college,Huntingdon,PA,Anabaptist,0.3722,0.4157,0.5004,0.43221,"Juniata College, Huntingdon, PA",Stable,3,526,51,129579165.752,171196383.537,40.5012255,-78.01516280060704
231581,bridgewater college,Bridgewater,VA,Anabaptist,0.4602,0.4222999999999999,0.5004,0.46872,"Bridgewater College, Bridgewater, VA",Secure,4,356,22,114186929.741,155135904.323,38.3772626,-78.96809814655431
232043,eastern mennonite university,Harrisonburg,VA,Anabaptist,0.3242,0.4203,0.5211,0.42222,"Eastern Mennonite University, Harrisonburg, VA",Vulnerable,2,578,22,49620331.546,98633381.496,38.47216285,-78.87794515329837
101693,university of mobile,Mobile,AL,Baptist,0.4598,0.4192,0.4932,0.46506,"University of Mobile, Mobile, AL",Secure,4,373,11,25355319.679,50660170.556,30.7919746,-88.13124153816352
106306,arkansas baptist college,Little Rock,AR,Baptist,0.2392,0.3677,0.4852,0.36335,"Arkansas Baptist College, Little Rock, AR",Critical,0,823,7,0.0,91673010.031,34.7349723,-92.2898356068249
107512,ouachita baptist university,Arkadelphia,AR,Baptist,0.4301,0.429,0.5036,0.4593,"Ouachita Baptist University, Arkadelphia, AR",Secure,4,392,7,151340751.651,184111722.769,34.1307617,-93.05250677656251
110361,california baptist university,Riverside,CA,Baptist,0.8421,0.8806,0.4868,0.70757,"California Baptist University, Riverside, CA",Elite,7,68,30,200790654.859,386591138.979,33.9283239,-117.4259206205848
133979,florida memorial university,Miami Gardens,FL,Baptist,0.5948,0.3943,0.4809,0.50915,"Florida Memorial University, Miami Gardens, FL",Healthy,5,245,30,8702986.563,89701715.086,25.9175201,-80.27068544105553
139205,brewton-parker college,Mount Vernon,GA,Baptist,0.4309,0.3829,0.4785,0.44036,"Brewton-Parker College, Mount Vernon, GA",Stable,3,481,26,9007040.303,40217632.009,32.18538895796868,-82.58347271164341
140447,mercer university,Macon,GA,Baptist,0.9579,0.7467,0.496,0.7308,"Mercer University, Macon, GA",Elite,7,52,26,596820645.75,824809847.413,32.8289341,-83.65067020582131
140553,morehouse college,Atlanta,GA,Baptist,0.8568000000000001,0.4396,0.3078,0.5536800000000001,"Morehouse College, Atlanta, GA",Strong,6,161,26,292320362.64,551769748.721,33.74737405,-84.41609506200462
140988,shorter university,Rome,GA,Baptist,0.436,0.4118,0.5004,0.45694,"Shorter University, Rome, GA",Secure,4,403,26,7788772.699,49254285.887,34.25942875,-85.19527510695326
146339,judson university,Elgin,IL,Baptist,0.3314,0.4153,0.4852,0.40973,"Judson University, Elgin, IL",At-Risk,1,637,42,11348072.443,16514643.79,42.0609055,-88.29150749046332
150604,franklin college,Franklin,IN,Baptist,0.3997,0.4052,0.502,0.44175,"Franklin College, Franklin, IN",Stable,3,472,23,103077723.117,121435558.448,39.47660655,-86.03725773127834
155627,ottawa university-ottawa,Ottawa,KS,Baptist,0.3568,0.3917,0.4821,0.41393,"Ottawa University-Ottawa, Ottawa, KS",Vulnerable,2,617,17,21732384.542,38812247.292,38.60293695,-95.2638028645363
156541,university of the cumberlands,Williamsburg,KY,Baptist,0.5921,0.9906,0.4594,0.6186,"University of the Cumberlands, Williamsburg, KY",Strong,6,110,16,502981178.591,777729655.667,36.73674315,-84.16286166961402
156745,georgetown college,Georgetown,KY,Baptist,0.3943,0.4168,0.4852,0.43518,"Georgetown College, Georgetown, KY",Stable,3,508,16,25877895.685,35311738.275,38.20692074999999,-84.55403434882237
159568,louisiana christian university,Pineville,LA,Baptist,0.3107,0.409,0.5064,0.40868,"Louisiana Christian University, Pineville, LA",At-Risk,1,640,8,50376238.695,97883922.51,31.3235321,-92.4258488256772
160977,bates college,Lewiston,ME,Baptist,0.42,0.442,0.5104,0.46058,"Bates College, Lewiston, ME",Secure,4,386,9,538171251.941,762928090.364,44.10656935,-70.20282870728443
173160,bethel university,Saint Paul,MN,Baptist,0.4086999999999999,0.4952,0.4932,0.45981,"Bethel University, Saint Paul, MN",Secure,4,388,23,102336837.068,156586967.915,36.14145385,-88.51552576233773
173160,bethel university,Saint Paul,MN,Baptist,0.4086999999999999,0.4952,0.4932,0.45981,"Bethel University, Saint Paul, MN",Secure,4,388,23,102336837.068,156586967.915,41.6763764,-86.19332967026835
173160,bethel university,Saint Paul,MN,Baptist,0.4086999999999999,0.4952,0.4932,0.45981,"Bethel University, Saint Paul, MN",Secure,4,388,23,12855674.236,41224846.036,36.14145385,-88.51552576233773
173160,bethel university,Saint Paul,MN,Baptist,0.4086999999999999,0.4952,0.4932,0.45981,"Bethel University, Saint Paul, MN",Secure,4,388,23,12855674.236,41224846.036,41.6763764,-86.19332967026835
173160,bethel university,Saint Paul,MN,Baptist,0.4086999999999999,0.4952,0.4932,0.45981,"Bethel University, Saint Paul, MN",Secure,4,388,23,11368919.048,34511235.245,36.14145385,-88.51552576233773
173160,bethel university,Saint Paul,MN,Baptist,0.4086999999999999,0.4952,0.4932,0.45981,"Bethel University, Saint Paul, MN",Secure,4,388,23,11368919.048,34511235.245,41.6763764,-86.19332967026835
176053,mississippi college,Clinton,MS,Baptist,0.5438000000000001,0.5632,0.5056,0.53238,"Mississippi College, Clinton, MS",Strong,6,191,6,90335905.662,244860710.34,32.3354174,-90.33188238452229
176479,william carey university,Hattiesburg,MS,Baptist,0.3576,0.5706,0.5032,0.45844,"William Carey University, Hattiesburg, MS",Secure,4,396,6,42625004.452,208753286.677,31.3037101,-89.29276386549502
177542,hannibal-lagrange university,Hannibal,MO,Baptist,0.23,0.3886,0.5628,0.39491,"Hannibal-LaGrange University, Hannibal, MO",At-Risk,1,716,29,5152412.609,17723564.401,39.73271775000001,-91.39100114558696
178244,missouri baptist university,Saint Louis,MO,Baptist,0.349,0.4451,0.4947999999999999,0.42656,"Missouri Baptist University, Saint Louis, MO",Vulnerable,2,559,29,14680189.629,67710684.824,38.6419861,-90.46229806385277
179326,southwest baptist university,Bolivar,MO,Baptist,0.2786,0.4546,0.5004,0.40255,"Southwest Baptist University, Bolivar, MO",At-Risk,1,665,29,46980244.95,72284996.49,37.60076005000001,-93.40873074472032
188641,alfred university,Alfred,NY,Baptist,0.3954999999999999,0.455,0.5215,0.45783,"Alfred University, Alfred, NY",Secure,4,399,75,221447605.223,392618060.13,42.255862,-77.7857087052491
192192,keuka college,Keuka Park,NY,Baptist,0.2987,0.4160999999999999,0.4916,0.39937,"Keuka College, Keuka Park, NY",At-Risk,1,691,75,19625986.253,42275999.634,42.6147014,-77.08995736319191
196866,union college,Schenectady,NY,Baptist,0.4664999999999999,0.436,0.4996,0.4736599999999999,"Union College, Schenectady, NY",Secure,4,335,75,34318226.734,56893240.579,42.8175752,-73.92839165453219
196866,union college,Schenectady,NY,Baptist,0.4664999999999999,0.436,0.4996,0.4736599999999999,"Union College, Schenectady, NY",Secure,4,335,75,34318226.734,56893240.579,36.87209919999999,-83.88792369909103
196866,union college,Schenectady,NY,Baptist,0.4664999999999999,0.436,0.4996,0.4736599999999999,"Union College, Schenectady, NY",Secure,4,335,75,34318226.724,56893237.636,42.8175752,-73.92839165453219
196866,union college,Schenectady,NY,Baptist,0.4664999999999999,0.436,0.4996,0.4736599999999999,"Union College, Schenectady, NY",Secure,4,335,75,34318226.724,56893237.636,36.87209919999999,-83.88792369909103
198136,campbell university,Buies Creek,NC,Baptist,0.4928,0.5797,0.4952,0.51112,"Campbell University, Buies Creek, NC",Healthy,5,242,35,214420609.208,510941043.434,35.408071,-78.73924679769573
198303,chowan university,Murfreesboro,NC,Baptist,0.2816,0.4013,0.5215,0.40155,"Chowan University, Murfreesboro, NC",At-Risk,1,675,35,27518359.914,92093285.128,36.4340869,-77.09650067197137
198561,gardner-webb university,Boiling Springs,NC,Baptist,0.5497,0.4765,0.5015999999999999,0.5158200000000001,"Gardner-Webb University, Boiling Springs, NC",Healthy,5,233,35,76768195.489,129095267.13,35.24782945,-81.67023803083481
198899,mars hill university,Mars Hill,NC,Baptist,0.4175999999999999,0.4044,0.498,0.44715,"Mars Hill University, Mars Hill, NC",Stable,3,442,35,71943555.512,92657921.056,35.827147,-82.5529516616329
198950,meredith college,Raleigh,NC,Baptist,0.411,0.4475,0.5004,0.45408,"Meredith College, Raleigh, NC",Secure,4,412,35,152712466.841,181555514.461,35.79821395,-78.68893690156162
199069,university of mount olive,Mount Olive,NC,Baptist,0.4086999999999999,0.4416,0.2364,0.3463,"University of Mount Olive, Mount Olive, NC",Critical,0,839,35,32190352.02,108966636.803,35.20585095,-78.06997857195825
199643,shaw university,Raleigh,NC,Baptist,0.2783,0.4075,0.494,0.39046,"Shaw University, Raleigh, NC",At-Risk,1,732,35,17549822.356,52886229.746,35.77076885,-78.63697923267378
199962,wingate university,Wingate,NC,Baptist,0.7044,0.4928,0.4936,0.57774,"Wingate University, Wingate, NC",Strong,6,142,35,155392138.056,234537537.851,34.9871011,-80.43731492196923
201654,cedarville university,Cedarville,OH,Baptist,0.7334,0.516,0.5036,0.59797,"Cedarville University, Cedarville, OH",Strong,6,125,46,56920085.868,416593059.796,39.7540491,-83.81705182918216
207403,oklahoma baptist university,Shawnee,OK,Baptist,0.3752,0.4243,0.5136,0.4404099999999999,"Oklahoma Baptist University, Shawnee, OK",Stable,3,480,7,208065709.699,322659034.141,35.36446295,-96.93385103279996
209065,linfield university,McMinnville,OR,Baptist,0.4036,0.4431,0.5108,0.4543999999999999,"Linfield University, McMinnville, OR",Secure,4,411,11,100128289.63,287321815.701,45.1984734,-123.1981383587192
217633,anderson university,Anderson,SC,Baptist,0.8531,0.5243,0.9968,0.84493,"Anderson University, Anderson, SC",Elite,7,2,19,30777700.896,202568222.119,34.51478935,-82.63874687710373
217633,anderson university,Anderson,SC,Baptist,0.8531,0.5243,0.9968,0.84493,"Anderson University, Anderson, SC",Elite,7,2,19,30777700.896,202568222.119,40.11455395,-85.6607189805517
217633,anderson university,Anderson,SC,Baptist,0.8531,0.5243,0.9968,0.84493,"Anderson University, Anderson, SC",Elite,7,2,19,40147184.087,69708298.057,34.51478935,-82.63874687710373
217633,anderson university,Anderson,SC,Baptist,0.8531,0.5243,0.9968,0.84493,"Anderson University, Anderson, SC",Elite,7,2,19,40147184.087,69708298.057,40.11455395,-85.6607189805517
217688,charleston southern university,Charleston,SC,Baptist,0.7123,0.4760999999999999,0.4943999999999999,0.57788,"Charleston Southern University, Charleston, SC",Strong,6,141,19,33920979.729,164119239.801,32.9826445,-80.07109661611514
217721,benedict college,Columbia,SC,Baptist,0.2998,0.4028,0.5104,0.40468,"Benedict College, Columbia, SC",At-Risk,1,657,19,23997287.368,146776806.224,34.01396275,-81.02097288919151
218399,morris college,Sumter,SC,Baptist,0.2709,0.3809,0.5588000000000001,0.40812,"Morris College, Sumter, SC",At-Risk,1,644,19,14455073.784,44184489.044,33.9383314,-80.34700051878013
218441,north greenville university,Tigerville,SC,Baptist,0.498,0.4435,0.5235,0.49732,"North Greenville University, Tigerville, SC",Healthy,5,272,19,30956213.269,115013807.707,35.070227,-82.37443307070124
219383,university of sioux falls,Sioux Falls,SD,Baptist,0.3768,0.4376,0.5044,0.44003,"University of Sioux Falls, Sioux Falls, SD",Stable,3,484,4,39456242.03,80564156.801,43.5309201,-96.73813259452697
219505,american baptist college,Nashville,TN,Baptist,0.2367,0.3749,0.4871999999999999,0.36459,"American Baptist College, Nashville, TN",Critical,0,818,28,569590.488,7872118.087,36.2022777,-86.7902765
219639,baptist health sciences university,Memphis,TN,Baptist,0.2339,0.4013,0.5164,0.38043,"Baptist Health Sciences University, Memphis, TN",Critical,0,767,28,135827700.113,98863733.351,35.13653725,-90.02616776188766
219806,carson-newman university,Jefferson City,TN,Baptist,0.3527,0.498,0.5044,0.44246,"Carson-Newman University, Jefferson City, TN",Stable,3,467,28,70816811.484,141679623.991,36.12206325,-83.4893262980502
221971,union university,Jackson,TN,Baptist,0.3829,0.4669,0.5893999999999999,0.48235,"Union University, Jackson, TN",Healthy,5,307,28,64660110.267,222563250.924,35.67712415,-88.86094997728624
223232,baylor university,Waco,TX,Baptist,0.9987,0.9525,0.5124,0.7948000000000001,"Baylor University, Waco, TX",Elite,7,14,31,2319964085.559,3769239200.629,31.55043405,-97.1102905567766
224226,dallas baptist university,Dallas,TX,Baptist,0.843,0.4749,0.5398,0.6480800000000001,"Dallas Baptist University, Dallas, TX",Elite,7,92,31,82425316.968,230082643.666,32.7108312,-96.94676797254901
224527,east texas baptist university,Marshall,TX,Baptist,0.58,0.425,0.4968,0.51573,"East Texas Baptist University, Marshall, TX",Healthy,5,234,31,38381286.655,141689028.371,32.55795265,-94.37511342798527
225247,hardin-simmons university,Abilene,TX,Baptist,0.573,0.4454999999999999,0.5112,0.5227900000000001,"Hardin-Simmons University, Abilene, TX",Healthy,5,213,31,279106314.498,406114663.867,32.4777117,-99.73415759382408
225548,howard payne university,Brownwood,TX,Baptist,0.3775,0.3893999999999999,0.5549000000000001,0.45089,"Howard Payne University, Brownwood, TX",Stable,3,422,31,51052205.371,146909887.212,31.71642025,-98.98631404578038
226471,university of mary hardin-baylor,Belton,TX,Baptist,0.8976000000000001,0.4924,0.4118,0.6221800000000001,"University of Mary Hardin-Baylor, Belton, TX",Elite,7,106,31,144510282.54,423503452.788,31.06868225,-97.46482937242428
231420,averett university,Danville,VA,Baptist,0.3832,0.4305,0.4829,0.43256,"Averett University, Danville, VA",Stable,3,522,22,22791309.261,29476443.318,36.5789301,-79.41452051628477
231554,bluefield university,Bluefield,VA,Baptist,0.3068,0.4266,0.5259,0.41844,"Bluefield University, Bluefield, VA",Vulnerable,2,595,22,2495765.492,17141955.1,37.24510425,-81.24800239953215
234164,virginia union university,Richmond,VA,Baptist,0.4847999999999999,0.3997,0.4947999999999999,0.4718,"Virginia Union University, Richmond, VA",Secure,4,343,22,27247024.571,78018235.14,37.5617598,-77.45105977399695
237136,appalachian bible college,Mount Hope,WV,Baptist,0.2627,0.3843999999999999,0.5052,0.38409,"Appalachian Bible College, Mount Hope, WV",Critical,0,749,6,2041796.187,12642667.428,37.85492139999999,-81.20494954511202
239071,maranatha baptist university,Watertown,WI,Baptist,0.2956,0.4063,0.4968,0.39826,"Maranatha Baptist University, Watertown, WI",At-Risk,1,697,18,2122886.172,18627841.783,43.19591645,-88.74001639641634
475608,criswell college,Dallas,TX,Baptist,0.2505,0.3848,0.5012,0.3776899999999999,"Criswell College, Dallas, TX",Critical,0,777,31,10507851.206,12152275.061,32.79311725,-96.77705112985801
150066,anderson university,Anderson,IN,Church of God,0.4235,0.4013,0.49,0.4456799999999999,"Anderson University, Anderson, IN",Stable,3,450,23,30777700.896,202568222.119,34.51478935,-82.63874687710373
150066,anderson university,Anderson,IN,Church of God,0.4235,0.4013,0.49,0.4456799999999999,"Anderson University, Anderson, IN",Stable,3,450,23,30777700.896,202568222.119,40.11455395,-85.6607189805517
150066,anderson university,Anderson,IN,Church of God,0.4235,0.4013,0.49,0.4456799999999999,"Anderson University, Anderson, IN",Stable,3,450,23,40147184.087,69708298.057,34.51478935,-82.63874687710373
150066,anderson university,Anderson,IN,Church of God,0.4235,0.4013,0.49,0.4456799999999999,"Anderson University, Anderson, IN",Stable,3,450,23,40147184.087,69708298.057,40.11455395,-85.6607189805517
153250,dordt university,Sioux Center,IA,Church of God,0.4740999999999999,0.4341,0.51,0.48048,"Dordt University, Sioux Center, IA",Healthy,5,316,25,76366256.958,222948244.432,43.08066095,-96.16404679319115
202763,the university of findlay,Findlay,OH,Church of God,0.5418,0.4681,0.4936,0.50778,"The University of Findlay, Findlay, OH",Healthy,5,250,46,66784971.941,191087937.421,40.9520749,-83.65536133422265
210304,warner pacific university,Portland,OR,Church of God,0.2324,0.3913,0.4817,0.36394,"Warner Pacific University, Portland, OR",Critical,0,820,11,4447077.398,14590173.063,45.5062805,-122.5933849442156
220613,lee university,Cleveland,TN,Church of God,0.3771,0.5168,0.5235,0.46362,"Lee University, Cleveland, TN",Secure,4,376,28,35616229.663,175704583.593,35.1660778,-84.86925196171154
245953,mid-america christian university,Oklahoma City,OK,Church of God,0.3096,0.4384,0.494,0.40915,"Mid-America Christian University, Oklahoma City, OK",At-Risk,1,639,7,4364190.92,35973421.372,35.3467159,-97.57847646028875
101189,faulkner university,Montgomery,AL,Churches of Christ,0.365,0.4852,0.4884,0.43841,"Faulkner University, Montgomery, AL",Stable,3,494,11,22415312.902,58114336.828,32.3854781,-86.21710609904724
121150,pepperdine university,Malibu,CA,Churches of Christ,0.6376,0.8351999999999999,0.5012,0.6224799999999999,"Pepperdine University, Malibu, CA",Elite,7,105,30,1352840941.697,2039289952.555,34.04301030000001,-118.7093458932893
133809,florida college,Temple Terrace,FL,Churches of Christ,0.3624,0.4067,0.5246999999999999,0.43622,"Florida College, Temple Terrace, FL",Stable,3,504,30,35415358.077,91785601.569,28.03446495,-82.38338213326841
170967,rochester university,Rochester Hills,MI,Churches of Christ,0.3424,0.4025,0.4821,0.41033,"Rochester University, Rochester Hills, MI",At-Risk,1,633,24,1247972.92,8228428.5,42.66870805,-83.1435408514073
181543,summit christian college,Gering,NE,Churches of Christ,0.2364,0.3768,0.5024000000000001,0.37093,"Summit Christian College, Gering, NE",Critical,0,806,11,127008.787,766649.226,41.8293566,-103.6757197
181853,york university,York,NE,Churches of Christ,0.2925,0.3997,0.5015999999999999,0.39762,"York University, York, NE",At-Risk,1,703,11,28165363.676,50548447.712,40.86967774999999,-97.58034078874503
199971,carolina christian college,Winston Salem,NC,Churches of Christ,0.2548999999999999,0.3897,0.4892,0.3756199999999999,"Carolina Christian College, Winston Salem, NC",Critical,0,786,35,0.0,1236620.443,36.1461516,-80.2562112
219976,lipscomb university,Nashville,TN,Churches of Christ,0.6420999999999999,0.5943999999999999,0.486,0.57008,"Lipscomb University, Nashville, TN",Strong,6,149,28,122667623.6,217858144.321,36.10507165,-86.79864091820343
220215,freed-hardeman university,Henderson,TN,Churches of Christ,0.2663,0.4503,0.514,0.40222,"Freed-Hardeman University, Henderson, TN",At-Risk,1,668,28,99443641.763,190166030.473,35.43981645,-88.63662784873422
222178,abilene christian university,Abilene,TX,Churches of Christ,0.9099,0.5318999999999999,0.5104,0.67446,"Abilene Christian University, Abilene, TX",Elite,7,83,31,966154256.423,1108270302.652,32.4699728,-99.70735954838815
130590,trinity college,Hartford,CT,Episcopal,0.6259,0.4451,0.5183,0.5467,"Trinity College, Hartford, CT",Strong,6,173,14,978344156.189,1086557301.718,41.74715485,-72.69011994734595
180832,clarkson college,Omaha,NE,Episcopal,0.2498,0.4254,0.5032,0.38632,"Clarkson College, Omaha, NE",Critical,0,745,11,6250224.204,40230250.592,41.25937365,-95.97542659744732
189088,bard college,Annandale-On-Hudson,NY,Episcopal,0.3978,0.4594,0.4769,0.44177,"Bard College, Annandale-On-Hudson, NY",Stable,3,471,75,527392686.804,304437507.653,42.0225482,-73.91072422119606
191630,hobart william smith colleges,Geneva,NY,Episcopal,0.4059,0.4321,0.5044,0.4505599999999999,"Hobart William Smith Colleges, Geneva, NY",Stable,3,425,75,111698276.99,404185939.785,42.8570498,-76.98719739224848
221519,the university of the south,Sewanee,TN,Episcopal,0.4614,0.4388,0.5303,0.48447,"The University of the South, Sewanee, TN",Healthy,5,298,28,547751685.405,834076400.942,35.20440405,-85.91895058826586
141185,toccoa falls college,Toccoa Falls,GA,Evangelical Christian,0.4094,0.4009,0.4507,0.42423,"Toccoa Falls College, Toccoa Falls, GA",Vulnerable,2,569,26,4440957.503,53064648.407,34.5937089,-83.35634657362554
174862,crown college,Saint Bonifacius,MN,Evangelical Christian,0.3854999999999999,0.4239,0.49,0.435,"Crown College, Saint Bonifacius, MN",Stable,3,510,23,12491070.895,36764359.331,44.88413435,-93.74256433121
150455,earlham college,Richmond,IN,Friends,0.3527,0.4048,0.514,0.42768,"Earlham College, Richmond, IN",Vulnerable,2,550,23,361551406.044,243757782.782,39.8204275,-84.91323124235393
154590,william penn university,Oskaloosa,IA,Friends,0.3851,0.3997,0.4871999999999999,0.42889,"William Penn University, Oskaloosa, IA",Vulnerable,2,544,25,11637740.67,49317333.512,41.3117756,-92.64894045918444
155089,friends university,Wichita,KS,Friends,0.3666,0.429,0.545,0.45048,"Friends University, Wichita, KS",Stable,3,427,17,72196492.467,115717686.289,37.6784007,-97.36542141621248
203775,malone university,Canton,OH,Friends,0.2981,0.4102,0.498,0.40052,"Malone University, Canton, OH",At-Risk,1,683,46,26621585.039,45837863.711,40.8265967,-81.37980061905188
206507,wilmington college,Wilmington,OH,Friends,0.3145,0.4097999999999999,0.5036,0.40924,"Wilmington College, Wilmington, OH",At-Risk,1,638,46,28680526.591,107894667.022,39.441677,-83.81731600752089
208822,george fox university,Newberg,OR,Friends,0.5611999999999999,0.5482,0.4964,0.53266,"George Fox University, Newberg, OR",Strong,6,190,11,34297851.568,225323857.985,45.3038562,-122.9665911824416
105899,arizona christian university,Glendale,AZ,Interdenominational,0.6334000000000001,0.4009,0.4832,0.5268200000000001,"Arizona Christian University, Glendale, AZ",Strong,6,199,2,1208834.35,20753681.335,33.62261334999999,-112.1826058201733
107141,john brown university,Siloam Springs,AR,Interdenominational,0.3917,0.4337,0.5576,0.4664999999999999,"John Brown University, Siloam Springs, AR",Secure,4,365,7,189082998.262,316154595.68,36.19083695,-94.55957189163513
110097,biola university,La Mirada,CA,Interdenominational,0.6171,0.5335,0.4936,0.55096,"Biola University, La Mirada, CA",Strong,6,165,30,117098515.092,336894672.326,33.90686,-118.0152171906512
123165,scripps college,Claremont,CA,Interdenominational,0.3797999999999999,0.4153,0.5251,0.44506,"Scripps College, Claremont, CA",Stable,3,453,30,620597160.654,774457816.428,34.10391835,-117.7093442200858
126669,colorado christian university,Lakewood,CO,Interdenominational,0.5231,0.5863,0.4844,0.52024,"Colorado Christian University, Lakewood, CO",Healthy,5,222,5,13890359.104,137754561.493,39.7129396,-105.0952693636912
129525,university of hartford,West Hartford,CT,Interdenominational,0.9514,0.6122,0.488,0.69813,"University of Hartford, West Hartford, CT",Elite,7,72,14,213098795.409,198085782.025,41.8002648,-72.71412054842195
130794,yale university,New Haven,CT,Interdenominational,0.9884,0.9072,0.5521,0.79753,"Yale University, New Haven, CT",Elite,7,11,14,50681474134.498,56397749834.816,41.3135727,-72.9231731
132657,lynn university,Boca Raton,FL,Interdenominational,0.8215,0.4976,0.4904,0.62425,"Lynn University, Boca Raton, FL",Elite,7,103,30,41181258.704,146317352.785,26.3837711,-80.12540276819502
134945,jacksonville university,Jacksonville,FL,Interdenominational,0.8084,0.5219,0.4844,0.62146,"Jacksonville University, Jacksonville, FL",Strong,6,107,30,73907909.018,113709220.349,30.3537227,-81.60730605405212
136330,palm beach atlantic university,West Palm Beach,FL,Interdenominational,0.7719,0.4637,0.5028,0.6026,"Palm Beach Atlantic University, West Palm Beach, FL",Strong,6,119,30,118945105.491,370186071.451,26.7048899,-80.05085158341606
137962,trinity college of florida,Trinity,FL,Interdenominational,0.2578,0.3752,0.4876,0.37325,"Trinity College of Florida, Trinity, FL",Critical,0,797,30,939976.55,3174062.423,28.19391805,-82.67835960740362
139144,berry college,Mount Berry,GA,Interdenominational,0.823,0.4435,0.5828,0.65102,"Berry College, Mount Berry, GA",Elite,7,90,26,402275173.523,1792430506.882,34.293036,-85.19174086702785
143118,aurora university,Aurora,IL,Interdenominational,0.6476999999999999,0.7123,0.4928,0.5986,"Aurora University, Aurora, IL",Strong,6,124,42,57093254.696,215487246.504,41.754829,-88.34950358637296
144050,university of chicago,Chicago,IL,Interdenominational,0.937,0.9736,0.496,0.76778,"University of Chicago, Chicago, IL",Elite,7,32,42,10776747231.612,9504208947.19,41.79139685,-87.60084387193544
144883,east-west university,Chicago,IL,Interdenominational,0.3741,0.3726,0.5991,0.46387,"East-West University, Chicago, IL",Secure,4,375,42,15918651.608,80918784.288,41.8712713,-87.62506935993366
147369,moody bible institute,Chicago,IL,Interdenominational,0.2884,0.4558,0.5239,0.41612,"Moody Bible Institute, Chicago, IL",Vulnerable,2,606,42,366313699.463,546162814.481,41.9002764,-87.6354882298403
149505,trinity christian college,Palos Heights,IL,Interdenominational,0.3075,0.4056,0.5064,0.4067199999999999,"Trinity Christian College, Palos Heights, IL",At-Risk,1,650,42,18248078.865,44901197.103,41.6689319,-87.78340322217727
149781,wheaton college,Wheaton,IL,Interdenominational,0.5028,0.4749,0.5251,0.50615,"Wheaton College, Wheaton, IL",Healthy,5,253,42,662050503.677,1003275443.333,41.86963745,-88.09755524953694
156213,asbury university,Wilmore,KY,Interdenominational,0.502,0.4301,0.5339,0.5004,"Asbury University, Wilmore, KY",Healthy,5,265,16,88642139.008,200442971.478,37.8633341,-84.66528114627815
156295,berea college,Berea,KY,Interdenominational,0.4013,0.4164,0.6304,0.49603,"Berea College, Berea, KY",Healthy,5,275,16,1620002877.407,2219878351.923,37.57153635,-84.28979604472684
164465,amherst college,Amherst,MA,Interdenominational,0.4677,0.4407999999999999,0.5777,0.50636,"Amherst College, Amherst, MA",Healthy,5,252,51,4254154753.154,5994956042.334,42.3703768,-72.5160691823344
165662,emerson college,Boston,MA,Interdenominational,0.7473000000000001,0.5659000000000001,0.4956,0.6103000000000001,"Emerson College, Boston, MA",Strong,6,115,51,279832730.644,684986908.594,42.3521996,-71.0656808
165936,gordon college,Wenham,MA,Interdenominational,0.3568,0.4372,0.4992,0.42987,"Gordon College, Wenham, MA",Vulnerable,2,538,51,127257830.927,158911668.765,42.5888528,-70.8203006
167835,smith college,Northampton,MA,Interdenominational,0.5482,0.4753,0.5235,0.52375,"Smith College, Northampton, MA",Strong,6,210,51,-174348714.721,-159913609.945,42.31622385,-72.64039315198599
170037,cornerstone university,Grand Rapids,MI,Interdenominational,0.4145,0.4257999999999999,0.5271,0.46183,"Cornerstone University, Grand Rapids, MI",Secure,4,383,24,21135676.681,113163877.874,42.98088915,-85.59574235212932
178697,college of the ozarks,Point Lookout,MO,Interdenominational,0.3542,0.4196,0.5851,0.4597,"College of the Ozarks, Point Lookout, MO",Secure,4,389,29,699206960.681,909502758.966,36.617958,-93.23650382366762
186131,princeton university,Princeton,NJ,Interdenominational,0.9479,0.6751,0.6282,0.76542,"Princeton University, Princeton, NJ",Elite,7,34,15,45087052885.495,48581181910.45,40.33867515,-74.65836549131683
191515,hamilton college,Clinton,NY,Interdenominational,0.4388,0.4451,0.5596,0.48841,"Hamilton College, Clinton, NY",Healthy,5,289,75,1562290689.945,1752416806.508,43.0537974,-75.40693894376341
192749,manhattanville college,Purchase,NY,Interdenominational,0.3354,0.4736999999999999,0.4829,0.42208,"Manhattanville College, Purchase, NY",Vulnerable,2,579,75,27572311.394,25862925.681,41.0313935,-73.7155858
193584,nazareth university,Rochester,NY,Interdenominational,0.4133,0.4896,0.5152,0.46934,"Nazareth University, Rochester, NY",Secure,4,354,75,97344919.158,252971042.652,43.1025786,-77.52006821627872
199032,montreat college,Montreat,NC,Interdenominational,0.3468,0.3974,0.5203,0.42636,"Montreat College, Montreat, NC",Vulnerable,2,563,35,10885516.189,114280988.263,35.6459434,-82.2970364
203128,hiram college,Hiram,OH,Interdenominational,0.3173999999999999,0.3917,0.4888,0.40086,"Hiram College, Hiram, OH",At-Risk,1,681,46,54055666.885,52535268.739,41.3136471,-81.14306812554344
203535,kenyon college,Gambier,OH,Interdenominational,0.4424,0.4357,0.5168,0.47084,"Kenyon College, Gambier, OH",Secure,4,345,46,668014003.67,1029061481.88,40.3725696,-82.39427459529426
213400,lancaster bible college,Lancaster,PA,Interdenominational,0.2998,0.4471,0.4907999999999999,0.40569,"Lancaster Bible College, Lancaster, PA",At-Risk,1,655,51,20909046.413,63044709.244,40.0752884,-76.28808851521957
213996,messiah university,Mechanicsburg,PA,Interdenominational,0.4629999999999999,0.494,0.4932,0.48128,"Messiah University, Mechanicsburg, PA",Healthy,5,311,51,110423257.013,191459755.953,40.19369145,-76.97605268396879
217235,johnson & wales university-providence,Providence,RI,Interdenominational,0.6033,0.3779,0.5235,0.52632,"Johnson & Wales University-Providence, Providence, RI",Strong,6,201,8,453968599.208,669501103.112,41.78823615,-71.39038710016683
218070,furman university,Greenville,SC,Interdenominational,0.6263000000000001,0.4645,0.5604,0.56759,"Furman University, Greenville, SC",Strong,6,152,19,930653722.2,1280839014.117,34.92577435,-82.4385258125221
218238,limestone university,Gaffney,SC,Interdenominational,0.4219,0.4211,0.4721,0.4418399999999999,"Limestone University, Gaffney, SC",Stable,3,469,19,-36304529.043,-39166761.318,35.05532985,-81.64839226367576
219709,belmont university,Nashville,TN,Interdenominational,0.9774,0.6693000000000001,0.5136,0.73018,"Belmont University, Nashville, TN",Elite,7,53,28,497223117.777,1779970330.445,36.13278325,-86.79265777214094
219790,bryan college-dayton,Dayton,TN,Interdenominational,0.2991,0.4032,0.4947999999999999,0.39824,"Bryan College-Dayton, Dayton, TN",At-Risk,1,698,28,11031494.867,41619052.845,35.49789125,-84.99855097356965
226231,letourneau university,Longview,TX,Interdenominational,0.5565,0.4364,0.4503,0.48999,"LeTourneau University, Longview, TX",Healthy,5,282,31,33535602.32,143774586.905,32.46575895,-94.72644452435199
230816,bennington college,Bennington,VT,Interdenominational,0.3092,0.4059,0.4896,0.40073,"Bennington College, Bennington, VT",At-Risk,1,682,7,59433818.69,87432949.965,42.92044325,-73.23852531543986
231651,regent university,Virginia Beach,VA,Interdenominational,0.6609,0.7293999999999999,0.4972,0.6090599999999999,"Regent University, Virginia Beach, VA",Strong,6,116,22,52200584.009,156396704.683,36.79932065,-76.19440046772189
233301,randolph college,Lynchburg,VA,Interdenominational,0.4471,0.3924,0.4709,0.4457,"Randolph College, Lynchburg, VA",Stable,3,449,22,211944670.913,310890641.099,37.43933375,-79.17093485132823
243744,stanford university,Stanford,CA,Interdenominational,0.9879,0.8878,0.5287,0.78408,"Stanford University, Stanford, CA",Elite,7,20,30,43678472171.516,59350958269.808,37.43131385,-122.1693653549831
384254,beacon college,Leesburg,FL,Interdenominational,0.3274,0.397,0.4876,0.40543,"Beacon College, Leesburg, FL",At-Risk,1,656,30,149238.744,30501894.92,28.81243925,-81.87392600460183
449764,visible music college,Memphis,TN,Interdenominational,0.2566,0.389,0.4745,0.37028,"Visible Music College, Memphis, TN",Critical,0,808,28,0.0,-3393647.795,35.144546,-90.04930292827464
164580,babson college,Wellesley,MA,Jewish,0.5636,0.5486,0.5115999999999999,0.53979,"Babson College, Wellesley, MA",Strong,6,182,51,825599767.255,1143888723.248,42.29914,-71.2622114
164632,bay path university,Longmeadow,MA,Jewish,0.2915,0.51,0.5064,0.42118,"Bay Path University, Longmeadow, MA",Vulnerable,2,583,51,89141668.389,117218760.919,42.055796,-72.58419180850242
197708,yeshiva university,New York,NY,Jewish,0.4956,0.5663,0.4896,0.50732,"Yeshiva University, New York, NY",Healthy,5,251,75,514895874.992,511753421.412,40.84898065,-73.92984026052692
110413,california lutheran university,Thousand Oaks,CA,Lutheran,0.5572,0.5386,0.4789,0.5221399999999999,"California Lutheran University, Thousand Oaks, CA",Healthy,5,218,30,177402642.081,350223900.924,34.22655655,-118.8785216793059
112075,concordia university-irvine,Irvine,CA,Lutheran,0.4136999999999999,0.5789,0.4952,0.47933,"Concordia University-Irvine, Irvine, CA",Secure,4,318,30,77124887.42,212242129.241,33.65393299999999,-117.810899965439
143084,augustana college,Rock Island,IL,Lutheran,0.5659000000000001,0.4522,0.514,0.52241,"Augustana College, Rock Island, IL",Healthy,5,217,42,245717028.381,413812596.105,41.5015277,-90.55036987078799
144351,concordia university-chicago,River Forest,IL,Lutheran,0.3684,0.6164000000000001,0.488,0.4658299999999999,"Concordia University-Chicago, River Forest, IL",Secure,4,367,42,33351280.489,37035716.786,41.8993058,-87.80945756076432
153375,grand view university,Des Moines,IA,Lutheran,0.3771,0.4325,0.492,0.43416,"Grand View University, Des Moines, IA",Stable,3,515,25,44247249.718,80430556.977,41.61980315,-93.5988096106748
153834,luther college,Decorah,IA,Lutheran,0.3347,0.4157,0.5572,0.4399499999999999,"Luther College, Decorah, IA",Stable,3,485,25,228431300.245,303816832.513,43.3169528,-91.79850254143065
154527,wartburg college,Waverly,IA,Lutheran,0.4025,0.4168,0.4936,0.44182,"Wartburg College, Waverly, IA",Stable,3,470,25,105913802.997,156231747.705,42.73114305,-92.48568382574045
154721,bethany college,Lindsborg,KS,Lutheran,0.2922,0.3871,0.4829,0.3875,"Bethany College, Lindsborg, KS",Critical,0,743,17,56798919.108,41196170.937,38.5810524,-97.67209728576788
154721,bethany college,Lindsborg,KS,Lutheran,0.2922,0.3871,0.4829,0.3875,"Bethany College, Lindsborg, KS",Critical,0,743,17,56798919.108,41196170.937,40.20580445,-80.56165856727861
154721,bethany college,Lindsborg,KS,Lutheran,0.2922,0.3871,0.4829,0.3875,"Bethany College, Lindsborg, KS",Critical,0,743,17,21213637.344,8525509.56,38.5810524,-97.67209728576788
154721,bethany college,Lindsborg,KS,Lutheran,0.2922,0.3871,0.4829,0.3875,"Bethany College, Lindsborg, KS",Critical,0,743,17,21213637.344,8525509.56,40.20580445,-80.56165856727861
173045,augsburg university,Minneapolis,MN,Lutheran,0.7145999999999999,0.4813,0.4916,0.57872,"Augsburg University, Minneapolis, MN",Strong,6,140,23,91344558.713,150012366.637,44.9662364,-93.24110466136236
173142,bethany lutheran college,Mankato,MN,Lutheran,0.3605,0.3947,0.508,0.42638,"Bethany Lutheran College, Mankato, MN",Vulnerable,2,562,23,54118396.307,100262479.456,44.16674125,-93.99104281930205
173328,concordia university-saint paul,Saint Paul,MN,Lutheran,0.4825,0.6722,0.5195000000000001,0.53521,"Concordia University-Saint Paul, Saint Paul, MN",Strong,6,187,23,53566572.079,183574501.801,44.9497767,-93.15731626748348
173647,gustavus adolphus college,Saint Peter,MN,Lutheran,0.4740999999999999,0.44,0.5147999999999999,0.4835799999999999,"Gustavus Adolphus College, Saint Peter, MN",Healthy,5,303,23,373783675.686,579298972.016,44.3241873,-93.97146812490595
174844,st olaf college,Northfield,MN,Lutheran,0.7873,0.4689,0.5171,0.61552,"St Olaf College, Northfield, MN",Strong,6,112,23,886344578.208,1111314642.612,44.4640025,-93.18717908824593
180984,concordia university-nebraska,Seward,NE,Lutheran,0.4349,0.4657,0.512,0.47192,"Concordia University-Nebraska, Seward, NE",Secure,4,342,11,90111193.665,188272005.103,40.91364059999999,-97.08751020355166
181330,midland university,Fremont,NE,Lutheran,0.397,0.4357,0.488,0.44116,"Midland University, Fremont, NE",Stable,3,473,11,35966449.785,53321214.929,41.43827405,-96.48772006532067
197197,wagner college,Staten Island,NY,Lutheran,0.3893999999999999,0.4439,0.4892,0.44024,"Wagner College, Staten Island, NY",Stable,3,482,75,124330040.389,167786627.351,40.6147187,-74.09355867259515
198835,lenoir-rhyne university,Hickory,NC,Lutheran,0.4507,0.4598,0.5028,0.47337,"Lenoir-Rhyne University, Hickory, NC",Secure,4,337,35,161584213.369,247909731.275,35.74174755,-81.32675812958784
201548,capital university,Columbus,OH,Lutheran,0.3409,0.4664999999999999,0.502,0.43048,"Capital University, Columbus, OH",Vulnerable,2,531,46,154685044.37,238452178.673,39.95543425,-82.9376326885703
206525,wittenberg university,Springfield,OH,Lutheran,0.3635,0.4102,0.4832,0.42075,"Wittenberg University, Springfield, OH",Vulnerable,2,585,46,72000264.995,40966953.172,39.9351075,-83.81305544869264
212674,gettysburg college,Gettysburg,PA,Lutheran,0.4629999999999999,0.4589999999999999,0.5115999999999999,0.48166,"Gettysburg College, Gettysburg, PA",Healthy,5,310,51,460839110.246,580960380.197,39.8374688,-77.23964053600594
214175,muhlenberg college,Allentown,PA,Lutheran,0.3613,0.4424,0.5052,0.43511,"Muhlenberg College, Allentown, PA",Stable,3,509,51,371421954.066,520285536.692,40.59758265,-75.5104839064264
216278,susquehanna university,Selinsgrove,PA,Lutheran,0.4614,0.4565999999999999,0.5047999999999999,0.47781,"Susquehanna University, Selinsgrove, PA",Secure,4,322,51,235717964.662,315936484.417,40.79688725,-76.8750374280338
216357,thiel college,Greenville,PA,Lutheran,0.3114,0.3897,0.4968,0.4012599999999999,"Thiel College, Greenville, PA",At-Risk,1,678,51,52054022.847,63933322.235,41.41321855,-80.3857097541329
218414,newberry college,Newberry,SC,Lutheran,0.6141,0.4102,0.4876,0.52272,"Newberry College, Newberry, SC",Healthy,5,216,19,22655839.486,47311201.705,34.2852622,-81.6216373558786
219000,augustana university,Sioux Falls,SD,Lutheran,0.4589999999999999,0.4740999999999999,0.5012,0.47891,"Augustana University, Sioux Falls, SD",Secure,4,319,4,140305149.33,335183811.243,43.52533409999999,-96.73875740832086
224004,concordia university texas,Austin,TX,Lutheran,0.3947,0.4578,0.4947999999999999,0.44738,"Concordia University Texas, Austin, TX",Stable,3,440,31,32770478.631,138952507.899,30.4187934,-97.83847636586175
233426,roanoke college,Salem,VA,Lutheran,0.5667,0.4313,0.5251,0.52299,"Roanoke College, Salem, VA",Healthy,5,212,22,177318748.563,356369880.985,37.29778755,-80.05499962542144
236230,pacific lutheran university,Tacoma,WA,Lutheran,0.6361,0.4622,0.492,0.54367,"Pacific Lutheran University, Tacoma, WA",Strong,6,179,12,145866498.292,188569808.126,47.14375725,-122.4443888659279
240338,wisconsin lutheran college,Milwaukee,WI,Lutheran,0.4257999999999999,0.4048,0.496,0.4497099999999999,"Wisconsin Lutheran College, Milwaukee, WI",Stable,3,430,18,45523721.949,100072815.84,43.03726535,-88.02194662020278
100937,birmingham-southern college,Birmingham,AL,Methodist,0.2572,0.4114,0.4677,0.37227,"Birmingham-Southern College, Birmingham, AL",Critical,0,803,11,-28907620.377,-39629986.801,33.51618545,-86.85584696849322
101435,huntingdon college,Montgomery,AL,Methodist,0.512,0.4000999999999999,0.5104,0.489,"Huntingdon College, Montgomery, AL",Healthy,5,284,11,63675828.968,78700258.488,32.3493496,-86.28521194328175
101675,miles college,Fairfield,AL,Methodist,0.2303,0.3928,0.504,0.37233,"Miles College, Fairfield, AL",Critical,0,802,11,2181155.276,82947679.059,33.48109865,-86.90911015439585
107080,hendrix college,Conway,AR,Methodist,0.3646999999999999,0.4013,0.5068,0.4289,"Hendrix College, Conway, AR",Vulnerable,2,543,7,179109947.452,210247125.24,35.1008234,-92.44205084020781
120883,university of the pacific,Stockton,CA,Methodist,0.6754000000000001,0.6045,0.504,0.59262,"University of the Pacific, Stockton, CA",Strong,6,127,30,739230986.384,1159771049.808,37.98042375,-121.3128471983267
127060,university of denver,Denver,CO,Methodist,0.9661,0.927,0.5072,0.77459,"University of Denver, Denver, CO",Elite,7,29,5,1330532838.483,2082147541.686,39.6783106,-104.9624727630881
132602,bethune-cookman university,Daytona Beach,FL,Methodist,0.5501,0.425,0.4911999999999999,0.50153,"Bethune-Cookman University, Daytona Beach, FL",Healthy,5,260,30,32659573.668,160169305.958,29.21185355,-81.03198250103571
133526,edward waters university,Jacksonville,FL,Methodist,0.4852,0.3897,0.4757,0.46232,"Edward Waters University, Jacksonville, FL",Secure,4,380,30,1680649.0,58382801.242,30.34419595,-81.68356941956846
134079,florida southern college,Lakeland,FL,Methodist,0.7264,0.4972,0.5028,0.5911,"Florida Southern College, Lakeland, FL",Strong,6,131,30,117004041.609,311290347.297,28.0304561,-81.94554251154706
138761,andrew college,Cuthbert,GA,Methodist,0.3099,0.3829,0.4952,0.39866,"Andrew College, Cuthbert, GA",At-Risk,1,696,26,13466384.674,19224267.868,31.77219555,-84.79570870718634
138947,clark atlanta university,Atlanta,GA,Methodist,0.9917,0.4745,0.7514,0.79217,"Clark Atlanta University, Atlanta, GA",Elite,7,17,26,114792226.859,431803123.434,33.75012475,-84.41158897451389
139658,emory university,Atlanta,GA,Methodist,0.998,0.9041,0.5056,0.78213,"Emory University, Atlanta, GA",Elite,7,21,26,10491058820.98,19466266538.915,33.7969409,-84.32371468406527
140234,lagrange college,Lagrange,GA,Methodist,0.3632,0.4028,0.5015999999999999,0.42651,"LaGrange College, Lagrange, GA",Vulnerable,2,561,26,62373136.219,117784943.466,33.03381105,-85.04675027949351
140720,paine college,Augusta,GA,Methodist,0.2891,0.3699,0.4847999999999999,0.38358,"Paine College, Augusta, GA",Critical,0,752,26,5150467.0,10187933.602,33.46943155,-81.99560322689779
140872,reinhardt university,Waleska,GA,Methodist,0.5004,0.4211,0.496,0.48279,"Reinhardt University, Waleska, GA",Healthy,5,305,26,47300054.92,75855191.643,34.32186065,-84.55274396651248
141325,wesleyan college,Macon,GA,Methodist,0.3424,0.3963,0.5343,0.42999,"Wesleyan College, Macon, GA",Vulnerable,2,536,26,56098069.925,97176010.659,32.87342845000001,-83.71773399748099
141361,young harris college,Young Harris,GA,Methodist,0.4522,0.4009,0.5179,0.46825,"Young Harris College, Young Harris, GA",Secure,4,359,26,57319246.267,168408951.972,34.9357023,-83.84596813095078
145372,greenville university,Greenville,IL,Methodist,0.3358,0.4079,0.4809,0.40829,"Greenville University, Greenville, IL",At-Risk,1,641,42,32434902.025,48111285.915,38.89648605,-89.41250813892516
147013,mckendree university,Lebanon,IL,Methodist,0.4817,0.4376,0.484,0.47381,"McKendree University, Lebanon, IL",Secure,4,334,42,38765821.195,74556916.734,38.60868085,-89.81521661455423
147129,methodist college,Peoria,IL,Methodist,0.2373,0.4094,0.4805,0.36904,"Methodist College, Peoria, IL",Critical,0,811,42,39431046.163,86918459.7,40.78028965,-89.6829654980177
147660,north central college,Naperville,IL,Methodist,0.4852,0.4606,0.5032,0.48749,"North Central College, Naperville, IL",Healthy,5,292,42,143675157.361,295352004.087,41.77436545,-88.14274924248255
150400,depauw university,Greencastle,IN,Methodist,0.573,0.4222999999999999,0.5251,0.52372,"DePauw University, Greencastle, IN",Strong,6,211,23,753498436.894,1013264892.264,39.63804945,-86.86687365754466
150534,university of evansville,Evansville,IN,Methodist,0.7340000000000001,0.4388,0.9314,0.7540399999999999,"University of Evansville, Evansville, IN",Elite,7,39,23,173163950.365,318507866.54,37.9735131,-87.53229765717168
151263,university of indianapolis,Indianapolis,IN,Methodist,0.6072,0.5714,0.4911999999999999,0.5536099999999999,"University of Indianapolis, Indianapolis, IN",Strong,6,162,23,147068704.194,199257497.601,39.70939645,-86.13445225207252
153162,cornell college,Mount Vernon,IA,Methodist,0.3897,0.4017,0.5024000000000001,0.43721,"Cornell College, Mount Vernon, IA",Stable,3,498,25,103368586.672,201187263.374,41.9253978,-91.42398552745183
154350,simpson college,Indianola,IA,Methodist,0.3756,0.4048,0.4932,0.42851,"Simpson College, Indianola, IA",Vulnerable,2,547,25,103971248.982,112886753.176,41.3662127,-93.56605409912439
154688,baker university,Baldwin City,KS,Methodist,0.3202,0.4309,0.4964,0.4128499999999999,"Baker University, Baldwin City, KS",Vulnerable,2,622,17,58083413.484,95481253.772,38.77624315,-95.17939500727704
155414,kansas wesleyan university,Salina,KS,Methodist,0.3779,0.3932,0.5064,0.4324,"Kansas Wesleyan University, Salina, KS",Stable,3,524,17,52395997.589,68292148.433,38.8135329,-97.61005437482667
155900,southwestern college,Winfield,KS,Methodist,0.317,0.4075,0.4832,0.40161,"Southwestern College, Winfield, KS",At-Risk,1,672,17,4599760.521,14282877.513,37.24924525,-96.97401911330235
157076,kentucky wesleyan college,Owensboro,KY,Methodist,0.349,0.4004999999999999,0.4924,0.4166899999999999,"Kentucky Wesleyan College, Owensboro, KY",Vulnerable,2,600,16,41533486.438,43960959.25,37.7433245,-87.12062019141567
157216,lindsey wilson college,Columbia,KY,Methodist,0.4589999999999999,0.4700999999999999,0.5032,0.47891,"Lindsey Wilson College, Columbia, KY",Secure,4,319,16,42007451.572,121360309.789,37.1020748,-85.29968609783923
157863,union college,Barbourville,KY,Methodist,0.3177,0.4157,0.4996,0.41009,"Union College, Barbourville, KY",At-Risk,1,634,16,34318226.734,56893240.579,42.8175752,-73.92839165453219
157863,union college,Barbourville,KY,Methodist,0.3177,0.4157,0.4996,0.41009,"Union College, Barbourville, KY",At-Risk,1,634,16,34318226.734,56893240.579,36.87209919999999,-83.88792369909103
157863,union college,Barbourville,KY,Methodist,0.3177,0.4157,0.4996,0.41009,"Union College, Barbourville, KY",At-Risk,1,634,16,34318226.724,56893237.636,42.8175752,-73.92839165453219
157863,union college,Barbourville,KY,Methodist,0.3177,0.4157,0.4996,0.41009,"Union College, Barbourville, KY",At-Risk,1,634,16,34318226.724,56893237.636,36.87209919999999,-83.88792369909103
158477,centenary college of louisiana,Shreveport,LA,Methodist,0.5303,0.3928,0.5156000000000001,0.49694,"Centenary College of Louisiana, Shreveport, LA",Healthy,5,273,8,162686063.668,175378424.426,32.4842248,-93.73171274297073
158802,dillard university,New Orleans,LA,Methodist,0.3256,0.4052,0.5115999999999999,0.4159599999999999,"Dillard University, New Orleans, LA",Vulnerable,2,607,8,98509467.15,208561565.65,29.9962374,-90.0653677710487
168528,adrian college,Adrian,MI,Methodist,0.5024000000000001,0.4317,0.4924,0.48427,"Adrian College, Adrian, MI",Healthy,5,300,24,66246897.227,124351777.239,41.89849465,-84.06083239910039
168546,albion college,Albion,MI,Methodist,0.4301,0.4157,0.496,0.4536,"Albion College, Albion, MI",Secure,4,413,24,162837906.127,194367881.912,42.2437255,-84.74290095493066
172334,spring arbor university,Spring Arbor,MI,Methodist,0.3515999999999999,0.496,0.498,0.43906,"Spring Arbor University, Spring Arbor, MI",Stable,3,490,24,26642357.9,117431283.472,42.20800175,-84.55633879411187
173665,hamline university,Saint Paul,MN,Methodist,0.4388,0.4733,0.4984,0.4695499999999999,"Hamline University, Saint Paul, MN",Secure,4,351,23,148662628.756,211828910.429,44.96651135,-93.16458641389622
175980,millsaps college,Jackson,MS,Methodist,0.3071,0.3917,0.5251,0.41127,"Millsaps College, Jackson, MS",Vulnerable,2,630,6,106017093.802,180710458.086,32.32196355,-90.1798225329653
176318,rust college,Holly Springs,MS,Methodist,0.2719,0.3817,0.5115999999999999,0.3897899999999999,"Rust College, Holly Springs, MS",At-Risk,1,734,6,-12292775.62,84446782.312,34.77623250000001,-89.44731846573404
181297,nebraska methodist college of nursing & allied health,Omaha,NE,Methodist,0.264,0.4454999999999999,0.51,0.39874,"Nebraska Methodist College of Nursing & Allied Health, Omaha, NE",At-Risk,1,695,11,3682362.415,50294004.428,41.2657787,-96.04838707482637
181446,nebraska wesleyan university,Lincoln,NE,Methodist,0.4379999999999999,0.4313,0.5291,0.47313,"Nebraska Wesleyan University, Lincoln, NE",Secure,4,338,11,86489169.357,160503463.511,40.8383056,-96.64792960546531
183974,centenary university,Hackettstown,NJ,Methodist,0.3329,0.4145,0.4793,0.40781,"Centenary University, Hackettstown, NJ",At-Risk,1,647,15,19960438.503,-22660812.67,40.8470669,-74.8351007155218
184348,drew university,Madison,NJ,Methodist,0.4404,0.4463,0.4896,0.46127,"Drew University, Madison, NJ",Secure,4,384,15,119531081.814,96414784.265,40.76053795,-74.42816053099715
194958,roberts wesleyan university,Rochester,NY,Methodist,0.3128,0.455,0.4988,0.41567,"Roberts Wesleyan University, Rochester, NY",Vulnerable,2,609,75,40616776.973,110674171.941,43.12430275,-77.79839481733976
196413,syracuse university,Syracuse,NY,Methodist,0.9987,0.9719,0.5015999999999999,0.7943600000000001,"Syracuse University, Syracuse, NY",Elite,7,15,75,2282785566.015,3784430696.459,43.01711285,-76.11855360009726
197993,bennett college,Greensboro,NC,Methodist,0.2198,0.3722,0.4936,0.35985,"Bennett College, Greensboro, NC",Critical,0,828,35,17332614.492,62219276.978,36.0675102,-79.77963822343997
198066,brevard college,Brevard,NC,Methodist,0.3624,0.3939999999999999,0.5044,0.42556,"Brevard College, Brevard, NC",Vulnerable,2,565,35,38729258.914,73428125.702,35.237431,-82.72641122025428
198419,duke university,Durham,NC,Methodist,0.9942,0.9808,0.5199,0.8016599999999999,"Duke University, Durham, NC",Elite,7,7,35,14751189917.749,20317859864.844,36.00015569999999,-78.94422972195878
198598,greensboro college,Greensboro,NC,Methodist,0.4203,0.4021,0.4992,0.44825,"Greensboro College, Greensboro, NC",Stable,3,437,35,30513410.131,36602832.631,36.0713888,-79.8008558023214
198695,high point university,High Point,NC,Methodist,0.9913,0.6198,0.5056,0.72265,"High Point University, High Point, NC",Elite,7,57,35,202020476.542,1201373037.187,35.9720859,-79.9936582
198862,livingstone college,Salisbury,NC,Methodist,0.3997,0.3878,0.4932,0.43475,"Livingstone College, Salisbury, NC",Stable,3,512,35,2318188.436,88715930.898,35.67128695,-80.48567951259292
198969,methodist university,Fayetteville,NC,Methodist,0.4428,0.4246999999999999,0.5108,0.4664,"Methodist University, Fayetteville, NC",Secure,4,366,35,73000744.836,137238321.808,35.13408025,-78.87242991721607
199209,north carolina wesleyan university,Rocky Mount,NC,Methodist,0.3571999999999999,0.4309,0.5052,0.43117,"North Carolina Wesleyan University, Rocky Mount, NC",Vulnerable,2,530,35,13596362.304,45052041.272,36.01543505,-77.77490978880125
199306,pfeiffer university,Misenheimer,NC,Methodist,0.326,0.4044,0.4864,0.40587,"Pfeiffer University, Misenheimer, NC",At-Risk,1,653,35,22519393.398,35046501.163,35.48645430000001,-80.2821503180376
201195,baldwin wallace university,Berea,OH,Methodist,0.545,0.4943999999999999,0.4984,0.51624,"Baldwin Wallace University, Berea, OH",Healthy,5,231,46,193218530.128,274898182.54,41.37161015,-81.84848946631152
204185,university of mount union,Alliance,OH,Methodist,0.4424,0.4467,0.5219,0.47508,"University of Mount Union, Alliance, OH",Secure,4,330,46,167995141.339,309507680.148,40.90423869999999,-81.1106865488107
204635,ohio northern university,Ada,OH,Methodist,0.5024000000000001,0.4586,0.4988,0.49221,"Ohio Northern University, Ada, OH",Healthy,5,278,46,222732368.854,322635421.112,40.76557505,-83.83356241022632
204909,ohio wesleyan university,Delaware,OH,Methodist,0.4004999999999999,0.4086999999999999,0.5315,0.45458,"Ohio Wesleyan University, Delaware, OH",Secure,4,410,46,345939913.02,489117858.291,40.292858,-83.06427625448865
204936,otterbein university,Westerville,OH,Methodist,0.4404,0.4633,0.5024000000000001,0.46979,"Otterbein University, Westerville, OH",Secure,4,349,46,141448044.691,230634365.864,40.127744,-82.93627779442062
210401,willamette university,Salem,OR,Methodist,0.5024000000000001,0.4337,0.5028,0.48883,"Willamette University, Salem, OR",Healthy,5,286,11,409997685.993,459761975.617,44.9355889,-123.0308129250331
210571,albright college,Reading,PA,Methodist,0.3546,0.4039999999999999,0.484,0.41627,"Albright College, Reading, PA",Vulnerable,2,603,51,68066715.658,71444616.898,40.3627666,-75.91176286761947
210669,allegheny college,Meadville,PA,Methodist,0.2793,0.4207,0.5056,0.39814,"Allegheny College, Meadville, PA",At-Risk,1,700,51,324310270.263,375921689.393,41.6480894,-80.14529767068235
212009,dickinson college,Carlisle,PA,Methodist,0.4586,0.4309,0.516,0.47604,"Dickinson College, Carlisle, PA",Secure,4,327,51,735225413.689,826923533.973,40.20281155,-77.19957403793873
213507,lebanon valley college,Annville,PA,Methodist,0.4168,0.4542,0.4992,0.45726,"Lebanon Valley College, Annville, PA",Secure,4,401,51,96791159.236,232086280.679,40.3345578,-76.51374559549934
213668,lycoming college,Williamsport,PA,Methodist,0.3479,0.4000999999999999,0.5183,0.42654,"Lycoming College, Williamsport, PA",Vulnerable,2,560,51,165765636.272,277985347.296,41.2454429,-76.99988254888089
217624,allen university,Columbia,SC,Methodist,0.3424,0.3893999999999999,0.508,0.41808,"Allen University, Columbia, SC",Vulnerable,2,599,19,1168290.958,68957608.56,34.01046295,-81.0199355569104
217891,clinton college,Rock Hill,SC,Methodist,0.2478999999999999,0.3635,0.3494,0.31163,"Clinton College, Rock Hill, SC",Critical,0,840,19,0.0,10574878.45,34.9134907,-81.0431600314637
217934,columbia college,Columbia,SC,Methodist,0.3657999999999999,0.4396,0.4956,0.4325,"Columbia College, Columbia, SC",Stable,3,523,19,17525924.536,45963152.404,34.04613184999999,-81.03038940347594
217934,columbia college,Columbia,SC,Methodist,0.3657999999999999,0.4396,0.4956,0.4325,"Columbia College, Columbia, SC",Stable,3,523,19,17525924.536,45963152.404,38.95833745,-92.3259443469596
217934,columbia college,Columbia,SC,Methodist,0.3657999999999999,0.4396,0.4956,0.4325,"Columbia College, Columbia, SC",Stable,3,523,19,173120854.436,247895400.866,34.04613184999999,-81.03038940347594
217934,columbia college,Columbia,SC,Methodist,0.3657999999999999,0.4396,0.4956,0.4325,"Columbia College, Columbia, SC",Stable,3,523,19,173120854.436,247895400.866,38.95833745,-92.3259443469596
218821,spartanburg methodist college,Spartanburg,SC,Methodist,0.4888,0.4086999999999999,0.512,0.48208,"Spartanburg Methodist College, Spartanburg, SC",Healthy,5,309,19,31084100.251,54231586.213,34.95293105,-81.96916849432738
218973,wofford college,Spartanburg,SC,Methodist,0.6037,0.4345,0.5132,0.53367,"Wofford College, Spartanburg, SC",Strong,6,188,19,459136303.005,652941128.41,34.96115815,-81.93532160934096
219091,dakota wesleyan university,Mitchell,SD,Methodist,0.3061,0.4032,0.5008,0.40344,"Dakota Wesleyan University, Mitchell, SD",At-Risk,1,662,4,47619462.996,76089541.123,43.69723515,-98.03046792635385
220598,lane college,Jackson,TN,Methodist,0.2759,0.3871,0.5251,0.39787,"Lane College, Jackson, TN",At-Risk,1,701,28,4509654.066,58102062.35,35.6282633,-88.80669166676904
221731,tennessee wesleyan university,Athens,TN,Methodist,0.3128,0.4227,0.4904,0.40585,"Tennessee Wesleyan University, Athens, TN",At-Risk,1,654,28,16094035.773,31119617.356,35.44761055,-84.5944217053022
226587,mcmurry university,Abilene,TX,Methodist,0.5753,0.4009,0.5199,0.5182800000000001,"McMurry University, Abilene, TX",Healthy,5,224,31,81508840.133,181418362.939,32.429358,-99.74872217744309
227429,paul quinn college,Dallas,TX,Methodist,0.3061,0.392,0.492,0.39768,"Paul Quinn College, Dallas, TX",At-Risk,1,702,31,-10016354.852,35096056.471,32.6788166,-96.75367781374204
228246,southern methodist university,Dallas,TX,Methodist,0.9987,0.8568000000000001,0.5179,0.77788,"Southern Methodist University, Dallas, TX",Elite,7,27,31,2457485744.064,4136993725.935,32.84180114999999,-96.78152810147064
228343,southwestern university,Georgetown,TX,Methodist,0.6114,0.4286,0.5132,0.53557,"Southwestern University, Georgetown, TX",Strong,6,186,31,476755918.22,648426933.146,30.6371513,-97.66274097607483
228884,texas college,Tyler,TX,Methodist,0.3628,0.3821,0.3177,0.3486,"Texas College, Tyler, TX",Critical,0,837,31,3184466.921,86462277.209,32.3746078,-95.31245324946968
229160,texas wesleyan university,Fort Worth,TX,Methodist,0.7881,0.4503,0.627,0.6561199999999999,"Texas Wesleyan University, Fort Worth, TX",Elite,7,88,31,69181216.393,191672051.141,32.73306755,-97.28013399216506
232089,ferrum college,Ferrum,VA,Methodist,0.2867,0.3882,0.502,0.39316,"Ferrum College, Ferrum, VA",At-Risk,1,722,22,69567531.555,104241113.089,36.93142245,-80.02813058907365
233295,randolph-macon college,Ashland,VA,Methodist,0.498,0.4261999999999999,0.5075999999999999,0.4875,"Randolph-Macon College, Ashland, VA",Healthy,5,291,22,266170850.373,369025990.229,37.7625105,-77.47954212782594
233541,shenandoah university,Winchester,VA,Methodist,0.5513,0.5454,0.492,0.52638,"Shenandoah University, Winchester, VA",Strong,6,200,22,91468760.278,198877310.5,39.16630535,-78.15876380974831
234173,virginia wesleyan university,Virginia Beach,VA,Methodist,0.4160999999999999,0.4129,0.5191,0.45669,"Virginia Wesleyan University, Virginia Beach, VA",Secure,4,405,22,168199556.851,250885917.554,36.86802,-76.1877440355182
236328,university of puget sound,Tacoma,WA,Methodist,0.488,0.4507,0.5275,0.49636,"University of Puget Sound, Tacoma, WA",Healthy,5,274,12,548364873.475,713613237.9,47.261437,-122.4809573217707
236577,seattle pacific university,Seattle,WA,Methodist,0.1785,0.5215,0.4996,0.37557,"Seattle Pacific University, Seattle, WA",Critical,0,788,12,214946831.333,298253709.198,47.64886755,-122.3619664218745
237969,west virginia wesleyan college,Buckhannon,WV,Methodist,0.2963,0.4036,0.5267000000000001,0.40997,"West Virginia Wesleyan College, Buckhannon, WV",At-Risk,1,635,6,91172006.06,137666307.809,38.99047564999999,-80.21826091194856
102377,tuskegee university,Tuskegee,AL,Not applicable,0.9695,0.4578,0.5112,0.6838,"Tuskegee University, Tuskegee, AL",Elite,7,79,11,171767411.222,543580962.365,32.4301095,-85.70673351537872
109651,art center college of design,Pasadena,CA,Not applicable,0.4522,0.4733,0.4932,0.47283,"Art Center College of Design, Pasadena, CA",Secure,4,340,30,166702816.018,264629084.541,34.16874025,-118.1851007250844
110370,california college of the arts,San Francisco,CA,Not applicable,0.3001,0.44,0.4884,0.40343,"California College of the Arts, San Francisco, CA",At-Risk,1,663,30,53646047.166,160979453.959,37.767859,-122.4006018694869
111966,charles r drew university of medicine and science,Los Angeles,CA,Not applicable,0.2382,0.3989999999999999,0.5,0.3751299999999999,"Charles R Drew University of Medicine and Science, Los Angeles, CA",Critical,0,790,30,124347612.954,318121825.357,33.92682765,-118.2423498962722
112260,claremont mckenna college,Claremont,CA,Not applicable,0.4219,0.4231,0.5584,0.47678,"Claremont McKenna College, Claremont, CA",Secure,4,324,30,1371196591.672,2100015233.444,34.0999577,-117.7061791541111
115409,harvey mudd college,Claremont,CA,Not applicable,0.3632,0.4122,0.5311,0.4402,"Harvey Mudd College, Claremont, CA",Stable,3,483,30,494843095.506,683137991.436,34.10614005,-117.7087281497148
117140,university of la verne,La Verne,CA,Not applicable,0.7136,0.5832,0.4952,0.60012,"University of La Verne, La Verne, CA",Strong,6,123,30,161218312.251,353791202.718,34.09986360000001,-117.7726224705835
120403,otis college of art and design,Los Angeles,CA,Not applicable,0.3978,0.4048,0.4892,0.43579,"Otis College of Art and Design, Los Angeles, CA",Stable,3,505,30,29507385.134,76653162.358,33.95673905,-118.4171692394095
121257,pitzer college,Claremont,CA,Not applicable,0.4192,0.4133,0.5012,0.45085,"Pitzer College, Claremont, CA",Stable,3,423,30,192351775.922,294108546.981,34.10471765,-117.7050428284479
121691,university of redlands,Redlands,CA,Not applicable,0.342,0.5632,0.5028,0.4505599999999999,"University of Redlands, Redlands, CA",Stable,3,425,30,298562069.858,417846725.239,34.0635903,-117.1638542075837
126678,colorado college,Colorado Springs,CO,Not applicable,0.6033,0.4478999999999999,0.5243,0.54063,"Colorado College, Colorado Springs, CO",Strong,6,180,5,921061721.661,1295124899.542,38.8480439,-104.8239509314005
127653,naropa university,Boulder,CO,Not applicable,0.2502,0.3994,0.4813,0.37252,"Naropa University, Boulder, CO",Critical,0,799,5,1538815.362,7568274.901,40.01407945,-105.2669594376209
128902,connecticut college,New London,CT,Not applicable,0.7044,0.4317,0.508,0.5713,"Connecticut College, New London, CT",Strong,6,148,14,508706675.169,697523775.094,41.37913335,-72.10653061495535
129154,goodwin university,East Hartford,CT,Not applicable,0.2963,0.5032,0.5124,0.42414,"Goodwin University, East Hartford, CT",Vulnerable,2,572,14,17127221.419,311842565.207,41.74144325,-72.63784988620363
129774,mitchell college,New London,CT,Not applicable,0.2663,0.3932,0.4888,0.38072,"Mitchell College, New London, CT",Critical,0,764,14,6339005.442,23547998.746,41.32765375,-72.09621002993681
129941,university of new haven,West Haven,CT,Not applicable,0.9401,0.7019,0.4876,0.7113700000000001,"University of New Haven, West Haven, CT",Elite,7,64,14,108510528.886,308447681.017,41.29091365,-72.96263883692575
130226,quinnipiac university,Hamden,CT,Not applicable,0.958,0.8018000000000001,0.504,0.7450600000000001,"Quinnipiac University, Hamden, CT",Elite,7,45,14,919249210.086,1687998274.251,41.41819485000001,-72.8931049147314
130697,wesleyan university,Middletown,CT,Not applicable,0.7831999999999999,0.4907999999999999,0.5207,0.6197,"Wesleyan University, Middletown, CT",Strong,6,109,14,2067888723.01,2254450571.809,41.5559033,-72.65598837890627
131113,wilmington university,New Castle,DE,Not applicable,0.3718,0.7981,0.5104,0.51246,"Wilmington University, New Castle, DE",Healthy,5,240,2,196831987.472,338402446.397,39.68213315,-75.58699781308974
133553,embry-riddle aeronautical university-daytona beach,Daytona Beach,FL,Not applicable,0.9987,0.6285000000000001,0.5075999999999999,0.72815,"Embry-Riddle Aeronautical University-Daytona Beach, Daytona Beach, FL",Elite,7,55,30,433488723.024,1537872382.512,29.19175315,-81.04958387456502
133711,flagler college,Saint Augustine,FL,Not applicable,0.7306999999999999,0.4640999999999999,0.4928,0.5821999999999999,"Flagler College, Saint Augustine, FL",Strong,6,136,30,29884691.996,205623954.493,29.89194365,-81.32156855386452
133881,florida institute of technology,Melbourne,FL,Not applicable,0.8384,0.7023,0.4984,0.67511,"Florida Institute of Technology, Melbourne, FL",Elite,7,82,30,113778143.62,337219137.929,28.064271,-80.6230040282868
135726,university of miami,Coral Gables,FL,Not applicable,0.9987,0.9517,0.4884,0.7850400000000001,"University of Miami, Coral Gables, FL",Elite,7,19,30,1723415781.048,5024327321.165,25.71727245,-80.2787068732586
136215,nova southeastern university,Fort Lauderdale,FL,Not applicable,0.9987,0.9221,0.4896,0.7796,"Nova Southeastern University, Fort Lauderdale, FL",Elite,7,25,30,272852556.471,1363005253.594,26.08757885,-80.14968855039686
136774,ringling college of art and design,Sarasota,FL,Not applicable,0.6129,0.4329,0.4968,0.53046,"Ringling College of Art and Design, Sarasota, FL",Strong,6,194,30,74236996.344,284134202.919,27.36000665,-82.5464064763355
136950,rollins college,Winter Park,FL,Not applicable,0.7256999999999999,0.4892,0.5028,0.58922,"Rollins College, Winter Park, FL",Strong,6,132,30,533397975.916,725088388.035,28.5925001,-81.3489577
137546,stetson university,DeLand,FL,Not applicable,0.5044,0.5318999999999999,0.4992,0.50781,"Stetson University, DeLand, FL",Healthy,5,249,30,421441570.603,608516611.076,29.03653465,-81.30054111521412
139199,brenau university,Gainesville,GA,Not applicable,0.3874,0.4753,0.498,0.44924,"Brenau University, Gainesville, GA",Stable,3,434,26,65027027.263,135962780.061,34.30369005,-83.82235377891529
140252,life university,Marietta,GA,Not applicable,0.4136999999999999,0.4753,0.4821,0.4533899999999999,"Life University, Marietta, GA",Secure,4,416,26,5682515.938,30163606.503,33.9311113,-84.51740878177948
141060,spelman college,Atlanta,GA,Not applicable,0.9107,0.4700999999999999,0.5824,0.69125,"Spelman College, Atlanta, GA",Elite,7,77,26,603817315.816,1067484725.771,33.74508885,-84.41138326759426
141167,thomas university,Thomasville,GA,Not applicable,0.4864,0.461,0.4968,0.48549,"Thomas University, Thomasville, GA",Healthy,5,297,26,7590070.348,20132489.014,30.8151379,-83.96435262333654
141644,hawaii pacific university,Honolulu,HI,Not applicable,0.5811999999999999,0.4172,0.4813,0.50844,"Hawaii Pacific University, Honolulu, HI",Healthy,5,248,3,47526999.914,40016509.01,21.37952275,-157.7830819456748
143048,school of the art institute of chicago,Chicago,IL,Not applicable,0.5871,0.494,0.5394,0.5494,"School of the Art Institute of Chicago, Chicago, IL",Strong,6,169,42,1663007082.791,1981619624.368,41.8812522,-87.62697448192992
143358,bradley university,Peoria,IL,Not applicable,0.6675,0.5820000000000001,0.4943999999999999,0.58113,"Bradley University, Peoria, IL",Strong,6,137,42,424914234.362,548607987.907,40.6981131,-89.61551386208208
144281,columbia college chicago,Chicago,IL,Not applicable,0.9608,0.4904,0.4829,0.67551,"Columbia College Chicago, Chicago, IL",Elite,7,81,42,188906272.005,152841053.143,41.8742404,-87.6247913
145646,illinois wesleyan university,Bloomington,IL,Not applicable,0.457,0.4235,0.508,0.47072,"Illinois Wesleyan University, Bloomington, IL",Secure,4,346,42,280247494.094,319035575.709,40.49242715,-88.99042108232373
145725,illinois institute of technology,Chicago,IL,Not applicable,0.5351,0.5584,0.4856,0.51994,"Illinois Institute of Technology, Chicago, IL",Healthy,5,223,42,325075410.805,370980480.438,41.83616405,-87.62647227745128
147536,national louis university,Chicago,IL,Not applicable,0.6679,0.6776000000000001,0.4964,0.60119,"National Louis University, Chicago, IL",Strong,6,121,42,100934774.345,148044902.702,41.87990865,-87.62490237384526
147767,northwestern university,Evanston,IL,Not applicable,0.9939,0.9987,0.5168,0.80388,"Northwestern University, Evanston, IL",Elite,7,6,42,12880933215.568,17977971856.063,42.0557157,-87.67529454739416
148405,rockford university,Rockford,IL,Not applicable,0.3383,0.4145,0.4996,0.4180899999999999,"Rockford University, Rockford, IL",Vulnerable,2,598,42,15493682.185,56428270.803,42.2683388,-89.01867338002917
148487,roosevelt university,Chicago,IL,Not applicable,0.627,0.5275,0.4813,0.5488000000000001,"Roosevelt University, Chicago, IL",Strong,6,170,42,165398539.195,37968927.428,41.87613485,-87.6251816505098
149639,vandercook college of music,Chicago,IL,Not applicable,0.246,0.3821,0.4907999999999999,0.37119,"VanderCook College of Music, Chicago, IL",Critical,0,804,42,417105.677,8998964.044,41.83676195,-87.6291654
150163,butler university,Indianapolis,IN,Not applicable,0.9385,0.5937,0.4976,0.69312,"Butler University, Indianapolis, IN",Elite,7,76,23,310796684.426,629450712.985,39.8407191,-86.17374943464814
151290,indiana institute of technology,Fort Wayne,IN,Not applicable,0.4992,0.4157,0.5068,0.48556,"Indiana Institute of Technology, Fort Wayne, IN",Healthy,5,296,23,201715108.596,320167221.816,41.07754835,-85.11768473673075
152673,wabash college,Crawfordsville,IN,Not applicable,0.3932,0.4048,0.5501,0.45832,"Wabash College, Crawfordsville, IN",Secure,4,398,23,432729804.686,619640191.947,40.0367517,-86.90726990345898
153269,drake university,Des Moines,IA,Not applicable,0.537,0.5462,0.5191,0.53167,"Drake University, Des Moines, IA",Strong,6,193,25,309201195.819,570704733.766,41.60307425,-93.65527531803741
153384,grinnell college,Grinnell,IA,Not applicable,0.4384,0.4321,0.6037,0.50331,"Grinnell College, Grinnell, IA",Healthy,5,258,25,3224894489.096,3597361821.383,41.75111985,-92.71984863278584
153861,maharishi international university,Fairfield,IA,Not applicable,0.2517,0.4836,0.4876,0.39246,"Maharishi International University, Fairfield, IA",At-Risk,1,725,25,12736028.451,77736942.672,41.023532,-91.96396696626837
154493,upper iowa university,Fayette,IA,Not applicable,0.2939,0.4629999999999999,0.4785,0.40158,"Upper Iowa University, Fayette, IA",At-Risk,1,673,25,23053650.922,8128006.879,42.83958545,-91.79330429016619
155937,sterling college,Sterling,KS,Not applicable,0.2905,0.3848,0.4896,0.38904,"Sterling College, Sterling, KS",Critical,0,738,17,6857264.81,27292660.517,38.2199775,-98.20912245441116
155937,sterling college,Sterling,KS,Not applicable,0.2905,0.3848,0.4896,0.38904,"Sterling College, Sterling, KS",Critical,0,738,17,6857264.81,27292660.517,44.65177415,-72.38233221619343
155937,sterling college,Sterling,KS,Not applicable,0.2905,0.3848,0.4896,0.38904,"Sterling College, Sterling, KS",Critical,0,738,17,1123380.243,6579179.953,38.2199775,-98.20912245441116
155937,sterling college,Sterling,KS,Not applicable,0.2905,0.3848,0.4896,0.38904,"Sterling College, Sterling, KS",Critical,0,738,17,1123380.243,6579179.953,44.65177415,-72.38233221619343
156189,alice lloyd college,Pippa Passes,KY,Not applicable,0.3046999999999999,0.3817,0.5761,0.42873,"Alice Lloyd College, Pippa Passes, KY",Vulnerable,2,546,16,69414111.092,189980385.226,37.3362011,-82.87339228684898
160755,tulane university of louisiana,New Orleans,LA,Not applicable,0.9365,0.8659,0.4968,0.74638,"Tulane University of Louisiana, New Orleans, LA",Elite,7,44,8,2472102985.898,3164605920.789,29.95794375,-90.07785846248962
160959,college of the atlantic,Bar Harbor,ME,Not applicable,0.2653,0.3897,0.5175,0.3911099999999999,"College of the Atlantic, Bar Harbor, ME",At-Risk,1,729,9,85338812.982,143912197.518,44.39407415,-68.21999264324018
161004,bowdoin college,Brunswick,ME,Not applicable,0.4172,0.4416,0.5643,0.4809599999999999,"Bowdoin College, Brunswick, ME",Healthy,5,312,9,3390107464.624,3467238061.202,43.90869735,-69.96142281131719
161086,colby college,Waterville,ME,Not applicable,0.5004,0.4558,0.5219,0.5001,"Colby College, Waterville, ME",Healthy,5,266,9,1369901768.402,2291892559.994,44.5684775,-69.66002565150262
161457,university of new england,Biddeford,ME,Not applicable,0.4618,0.5667,0.5064,0.50061,"University of New England, Biddeford, ME",Healthy,5,262,9,373554532.241,676824493.292,43.4591747,-70.38622144492447
161563,thomas college,Waterville,ME,Not applicable,0.3007999999999999,0.4094,0.5015999999999999,0.4028799999999999,"Thomas College, Waterville, ME",At-Risk,1,664,9,25379289.848,80217209.352,44.5223921,-69.66334775027758
162061,capitol technology university,Laurel,MD,Not applicable,0.3468,0.3994,0.5,0.4186399999999999,"Capitol Technology University, Laurel, MD",Vulnerable,2,594,13,6417286.354,26741644.703,39.04698215,-76.85145270190938
162654,goucher college,Baltimore,MD,Not applicable,0.3871,0.4321,0.5084000000000001,0.44465,"Goucher College, Baltimore, MD",Stable,3,456,13,269427621.691,342940676.996,39.408995,-76.59287091567526
162928,johns hopkins university,Baltimore,MD,Not applicable,0.9934,0.9987,0.5068,0.79967,"Johns Hopkins University, Baltimore, MD",Elite,7,9,13,15731249065.999,23225820663.452,39.33020225,-76.62185357858337
163295,maryland institute college of art,Baltimore,MD,Not applicable,0.3597999999999999,0.4733,0.4988,0.4381199999999999,"Maryland Institute College of Art, Baltimore, MD",Stable,3,495,13,131457371.853,224138833.061,39.3050505,-76.61976099495374
163976,st. john's college,Annapolis,MD,Not applicable,0.3500999999999999,0.3967,0.5335,0.43283,"St. John's College, Annapolis, MD",Stable,3,520,13,281900839.615,483667396.79,38.98228315,-76.49223748074706
164173,stevenson university,Owings Mills,MD,Not applicable,0.884,0.5028,0.4932,0.6514,"Stevenson University, Owings Mills, MD",Elite,7,89,13,141828815.066,226396983.611,39.4272656,-76.77650761968783
164216,washington college,Chestertown,MD,Not applicable,0.389,0.4036,0.5186999999999999,0.44384,"Washington College, Chestertown, MD",Stable,3,461,13,350849086.038,456282885.895,39.218376,-76.06925670472985
164270,mcdaniel college,Westminster,MD,Not applicable,0.6187,0.484,0.4996,0.54411,"McDaniel College, Westminster, MD",Strong,6,178,13,165073595.114,212791159.169,39.58516815,-77.00372758695082
164447,american international college,Springfield,MA,Not applicable,0.3442,0.4257999999999999,0.4911999999999999,0.41935,"American International College, Springfield, MA",Vulnerable,2,593,51,36829041.274,72854871.478,42.11339535,-72.55728564424604
164739,bentley university,Waltham,MA,Not applicable,0.7967,0.5710000000000001,0.5092,0.63652,"Bentley University, Waltham, MA",Elite,7,98,51,404462823.158,694526761.137,42.3834189,-71.2225864285891
164748,berklee college of music,Boston,MA,Not applicable,0.9337,0.6922,0.49,0.70784,"Berklee College of Music, Boston, MA",Elite,7,67,51,430083153.558,586532508.778,42.3483475,-71.08487040303883
164872,boston architectural college,Boston,MA,Not applicable,0.2445,0.4000999999999999,0.4884,0.37322,"Boston Architectural College, Boston, MA",Critical,0,798,51,9361960.99,22760687.626,42.3484696,-71.08575407316081
164988,boston university,Boston,MA,Not applicable,0.9987,0.9987,0.5124,0.80403,"Boston University, Boston, MA",Elite,7,5,51,4150309241.615,7970951403.429,42.3504215,-71.10322831831216
165015,brandeis university,Waltham,MA,Not applicable,0.6981,0.5979,0.508,0.60198,"Brandeis University, Waltham, MA",Strong,6,120,51,1436986849.546,1649308678.16,42.36650945,-71.2580196483813
165334,clark university,Worcester,MA,Not applicable,0.5402,0.5489,0.4964,0.52441,"Clark University, Worcester, MA",Strong,6,206,51,519220197.404,568740820.07,42.25146814999999,-71.82295086144981
165529,curry college,Milton,MA,Not applicable,0.4589999999999999,0.4451,0.4896,0.46847,"Curry College, Milton, MA",Secure,4,357,51,68513312.839,105082417.59,42.2378786,-71.114711547038
165574,dean college,Franklin,MA,Not applicable,0.3564,0.4118,0.4907999999999999,0.42127,"Dean College, Franklin, MA",Vulnerable,2,582,51,79605741.072,83731224.292,42.08465314999999,-71.39983777231043
165699,endicott college,Beverly,MA,Not applicable,0.7037,0.5347,0.4992,0.58807,"Endicott College, Beverly, MA",Strong,6,133,51,168494830.395,471755610.744,42.55406905,-70.8441366229226
165802,fisher college,Boston,MA,Not applicable,0.3231,0.4067,0.504,0.41222,"Fisher College, Boston, MA",Vulnerable,2,626,51,56229481.464,64369921.171,42.3553679,-71.07373780610305
166018,hampshire college,Amherst,MA,Not applicable,0.3285,0.3817,0.4689,0.39533,"Hampshire College, Amherst, MA",At-Risk,1,713,51,-19383323.328,33281776.317,42.32502175,-72.52940222329684
166027,harvard university,Cambridge,MA,Not applicable,0.9307,0.9987,0.9987,0.97151,"Harvard University, Cambridge, MA",Elite,7,1,51,1576052002.779,1665480298.705,42.36574324999999,-71.12221394207614
166391,lasell university,Newton,MA,Not applicable,0.3282,0.457,0.4813,0.41522,"Lasell University, Newton, MA",Vulnerable,2,611,51,52201231.36,10812499.344,42.34106865,-71.24859630298465
166452,lesley university,Cambridge,MA,Not applicable,0.2537,0.4534,0.5032,0.39347,"Lesley University, Cambridge, MA",At-Risk,1,718,51,220657839.815,296044314.477,42.3864348,-71.1190947
166683,massachusetts institute of technology,Cambridge,MA,Not applicable,0.7706999999999999,0.8248000000000001,0.5765,0.70377,"Massachusetts Institute of Technology, Cambridge, MA",Elite,7,69,51,32355542457.569,45600216105.616,42.3582529,-71.0966272383055
166939,mount holyoke college,South Hadley,MA,Not applicable,0.5156000000000001,0.4538,0.5378000000000001,0.51214,"Mount Holyoke College, South Hadley, MA",Healthy,5,241,51,1267179695.82,1370165323.219,42.25532845,-72.56966884397315
167260,nichols college,Dudley,MA,Not applicable,0.4039999999999999,0.4329,0.4932,0.44548,"Nichols College, Dudley, MA",Stable,3,451,51,37936705.839,97396848.69,42.0418482,-71.92971577727883
167358,northeastern university,Boston,MA,Not applicable,0.9981,0.9987,0.494,0.79643,"Northeastern University, Boston, MA",Elite,7,12,51,2526420354.964,5629633690.711,42.33510525,-71.08925787470238
167783,simmons university,Boston,MA,Not applicable,0.3882,0.6862,0.49,0.48849,"Simmons University, Boston, MA",Healthy,5,288,51,260552242.728,257683867.375,42.33893544999999,-71.10043183883623
167899,springfield college,Springfield,MA,Not applicable,0.4125,0.4813,0.4892,0.45695,"Springfield College, Springfield, MA",Secure,4,402,51,121427195.675,169906020.514,42.10284205,-72.55671489399984
168005,suffolk university,Boston,MA,Not applicable,0.7737,0.5878,0.486,0.62139,"Suffolk University, Boston, MA",Strong,6,108,51,263605075.129,285680989.254,42.3567011,-71.06105776439689
168148,tufts university,Medford,MA,Not applicable,0.9516,0.8588,0.5047999999999999,0.7542,"Tufts University, Medford, MA",Elite,7,38,51,3201484980.039,4174134391.164,42.40649125,-71.11800725402092
168218,wellesley college,Wellesley,MA,Not applicable,0.4992,0.4565999999999999,0.5553,0.51315,"Wellesley College, Wellesley, MA",Healthy,5,239,51,3868170467.338,3676641017.501,42.29177605,-71.3032751636105
168227,wentworth institute of technology,Boston,MA,Not applicable,0.6668000000000001,0.5156000000000001,0.4916,0.56646,"Wentworth Institute of Technology, Boston, MA",Strong,6,155,51,188620289.709,296005110.902,42.33657245000001,-71.0953729508291
168254,western new england university,Springfield,MA,Not applicable,0.5569,0.5124,0.4888,0.52075,"Western New England University, Springfield, MA",Healthy,5,221,51,77043321.444,159955338.08,42.1125825,-72.51478135708936
168342,williams college,Williamstown,MA,Not applicable,0.5088,0.4542,0.5753,0.52451,"Williams College, Williamstown, MA",Strong,6,205,51,4486955830.355,5151959977.823,42.7130236,-73.2030082
168421,worcester polytechnic institute,Worcester,MA,Not applicable,0.8739,0.6353,0.4924,0.6735099999999999,"Worcester Polytechnic Institute, Worcester, MA",Elite,7,84,51,661633876.064,850305423.419,42.274315,-71.80845674552586
169327,cleary university,Howell,MI,Not applicable,0.2837,0.4443,0.4825,0.39537,"Cleary University, Howell, MI",At-Risk,1,712,24,2148843.219,9283535.004,42.58746595,-83.88048112861308
169442,college for creative studies,Detroit,MI,Not applicable,0.4004999999999999,0.4160999999999999,0.5072,0.44633,"College for Creative Studies, Detroit, MI",Stable,3,445,24,95817210.082,227459596.712,42.36128,-83.06304456769371
169479,davenport university,Grand Rapids,MI,Not applicable,0.4772999999999999,0.5203,0.4829,0.48813,"Davenport University, Grand Rapids, MI",Healthy,5,290,24,0.0,64351493.237,42.84920905,-85.53130919554428
170532,kalamazoo college,Kalamazoo,MI,Not applicable,0.4407999999999999,0.4219,0.5092,0.4644,"Kalamazoo College, Kalamazoo, MI",Secure,4,374,24,338804828.182,378498822.701,42.29075735,-85.59936465969835
170675,lawrence technological university,Southfield,MI,Not applicable,0.4709,0.4447,0.4892,0.47299,"Lawrence Technological University, Southfield, MI",Secure,4,339,24,54783985.461,124198663.343,42.4752647,-83.25063727571097
171492,northwood university,Midland,MI,Not applicable,0.4086999999999999,0.4717,0.5044,0.4596,"Northwood University, Midland, MI",Secure,4,391,24,114060570.806,292446731.131,43.6311535,-84.27681755477265
173258,carleton college,Northfield,MN,Not applicable,0.6022,0.4435,0.5497,0.54948,"Carleton College, Northfield, MN",Strong,6,168,23,1435626560.522,1894585595.485,44.4612233,-93.1557163
174127,minneapolis college of art and design,Minneapolis,MN,Not applicable,0.3431,0.3974,0.3468,0.3554299999999999,"Minneapolis College of Art and Design, Minneapolis, MN",Critical,0,832,23,49783303.079,78109602.681,44.9566921,-93.27433002725542
174507,northwestern health sciences university,Bloomington,MN,Not applicable,0.2435,0.4079,0.4947999999999999,0.37694,"Northwestern Health Sciences University, Bloomington, MN",Critical,0,780,23,14869973.907,31463528.415,44.8504407,-93.31183907344055
175227,dunwoody college of technology,Minneapolis,MN,Not applicable,0.5434,0.4364,0.5318999999999999,0.51742,"Dunwoody College of Technology, Minneapolis, MN",Healthy,5,228,23,130298819.49,221798731.882,44.9731679,-93.29066773372568
177038,cleveland university-kansas city,Overland Park,KS,Not applicable,0.2398,0.3913,0.4664999999999999,0.36082,"Cleveland University-Kansas City, Overland Park, KS",Critical,0,826,17,881135.099,36579459.525,38.9322187,-94.67974333842893
177117,cottey college,Nevada,MO,Not applicable,0.2647,0.3806,0.6498999999999999,0.44205,"Cottey College, Nevada, MO",Stable,3,468,29,127187668.647,139831877.292,37.8365603,-94.37114356505387
177746,kansas city art institute,Kansas City,MO,Not applicable,0.3564,0.3939999999999999,0.5015999999999999,0.42204,"Kansas City Art Institute, Kansas City, MO",Vulnerable,2,580,29,83241950.731,150548887.234,39.04669785,-94.58317495871825
178721,park university,Parkville,MO,Not applicable,0.2943,0.6319,0.5092,0.44778,"Park University, Parkville, MO",Stable,3,439,29,60771057.79,175237047.034,39.18900875,-94.67252894147339
178891,ranken technical college,Saint Louis,MO,Not applicable,0.5553,0.4633,0.5199,0.5227499999999999,"Ranken Technical College, Saint Louis, MO",Healthy,5,215,29,15626770.275,129035989.499,38.6534824,-90.24921783355836
179265,university of health sciences and pharmacy in st. louis,Saint Louis,MO,Not applicable,0.2803,0.4192,0.5096,0.39984,"University of Health Sciences and Pharmacy in St. Louis, Saint Louis, MO",At-Risk,1,689,29,127685689.645,144165274.695,38.63708455,-90.2609963703083
179548,stephens college,Columbia,MO,Not applicable,0.263,0.3928,0.5112,0.38829,"Stephens College, Columbia, MO",Critical,0,741,29,50025177.76,108310822.525,38.9505943,-92.3229551
179867,washington university in st louis,Saint Louis,MO,Not applicable,0.9455,0.9522,0.506,0.77091,"Washington University in St Louis, Saint Louis, MO",Elite,7,31,29,14013231693.517,20853552846.551,38.64724015,-90.30840171586841
179894,webster university,Saint Louis,MO,Not applicable,0.3886,0.4017,0.4892,0.43149,"Webster University, Saint Louis, MO",Vulnerable,2,529,29,107255739.062,117585855.848,38.62831,-90.19291581871602
179955,william jewell college,Liberty,MO,Not applicable,0.3173999999999999,0.397,0.4928,0.40352,"William Jewell College, Liberty, MO",At-Risk,1,661,29,70211944.468,69919837.881,39.2513794,-94.41122222903627
180054,blackfeet community college,Browning,MT,Not applicable,0.2435,0.3745,0.508,0.37555,"Blackfeet Community College, Browning, MT",Critical,0,789,3,0.0,37282792.286,48.5523,-113.0087867459745
182634,colby-sawyer college,New London,NH,Not applicable,0.2733,0.3974,0.5096,0.39269,"Colby-Sawyer College, New London, NH",At-Risk,1,723,7,95657665.093,154704549.526,43.4141177,-71.97532444047863
182670,dartmouth college,Hanover,NH,Not applicable,0.6606000000000001,0.6495000000000001,0.2673,0.50094,"Dartmouth College, Hanover, NH",Healthy,5,261,7,10766698370.633,13616063894.734,43.7033798,-72.28860224553567
182795,franklin pierce university,Rindge,NH,Not applicable,0.268,0.4424,0.4876,0.39075,"Franklin Pierce University, Rindge, NH",At-Risk,1,730,7,31088603.885,60329972.377,42.7793366,-72.0558917
183026,southern new hampshire university,Manchester,NH,Not applicable,0.9987,0.9987,0.492,0.7958700000000001,"Southern New Hampshire University, Manchester, NH",Elite,7,13,7,81544270.668,1752657320.438,43.0374605,-71.44783921922284
184603,fairleigh dickinson university-metropolitan campus,Teaneck,NJ,Not applicable,0.6263000000000001,0.5036,0.484,0.54482,"Fairleigh Dickinson University-Metropolitan Campus, Teaneck, NJ",Strong,6,176,15,116018989.104,151030601.57,40.89807275,-74.0307211402726
185572,monmouth university,West Long Branch,NJ,Not applicable,0.7598999999999999,0.575,0.5104,0.62308,"Monmouth University, West Long Branch, NJ",Elite,7,104,15,190129023.154,423375467.34,40.27941055,-74.00680219986127
186867,stevens institute of technology,Hoboken,NJ,Not applicable,0.8588,0.7852,0.4936,0.6979099999999999,"Stevens Institute of Technology, Hoboken, NJ",Elite,7,73,15,408436918.291,779691692.079,40.7448096,-74.0252392276461
188429,adelphi university,Garden City,NY,Not applicable,0.7916,0.6855,0.4907999999999999,0.64999,"Adelphi University, Garden City, NY",Elite,7,91,75,264599037.715,421845976.44,40.7197638,-73.65197185396391
188526,albany college of pharmacy and health sciences,Albany,NY,Not applicable,0.2736,0.4102,0.488,0.3867199999999999,"Albany College of Pharmacy and Health Sciences, Albany, NY",Critical,0,744,75,69742501.174,75155278.158,42.64943435,-73.77661197493438
189097,barnard college,New York,NY,Not applicable,0.5679,0.4813,0.4964,0.52198,"Barnard College, New York, NY",Healthy,5,219,75,528864904.615,775792498.991,40.8094864,-73.96355097608796
189413,boricua college,New York,NY,Not applicable,0.2507999999999999,0.3928,0.5108,0.38325,"Boricua College, New York, NY",Critical,0,755,75,75000.0,10626107.519,40.7013535,-73.942403
190044,clarkson university,Potsdam,NY,Not applicable,0.4507,0.5335,0.4968,0.4857,"Clarkson University, Potsdam, NY",Healthy,5,295,75,254974816.654,377833210.514,44.65958875,-75.00623974830918
190099,colgate university,Hamilton,NY,Not applicable,0.6037,0.4789,0.5203,0.54538,"Colgate University, Hamilton, NY",Strong,6,175,75,1458814265.897,1788800965.446,42.8154037,-75.53958155911818
190114,metropolitan college of new york,New York,NY,Not applicable,0.2457,0.3989999999999999,0.4412,0.35459,"Metropolitan College of New York, New York, NY",Critical,0,833,75,993442.477,-5046575.546,40.8152756,-73.9153259
190150,columbia university in the city of new york,New York,NY,Not applicable,0.8626,0.9987,0.5084000000000001,0.7480100000000001,"Columbia University in the City of New York, New York, NY",Elite,7,41,75,16951370243.68,22347278783.937,40.80775585,-73.96161411567529
190415,cornell university,Ithaca,NY,Not applicable,0.9987,0.9962,0.5052,0.80065,"Cornell University, Ithaca, NY",Elite,7,8,75,10458861072.035,15722650828.117,42.4529076,-76.48008423030923
190983,elmira college,Elmira,NY,Not applicable,0.2847,0.3821,0.5299,0.40231,"Elmira College, Elmira, NY",At-Risk,1,667,75,12794399.229,80407312.111,42.0944203,-76.81553824542168
191533,hartwick college,Oneonta,NY,Not applicable,0.3737,0.3982,0.4832,0.42243,"Hartwick College, Oneonta, NY",Vulnerable,2,577,75,5113340.035,35049962.234,42.45997815,-75.07146882680061
191649,hofstra university,Hempstead,NY,Not applicable,0.8967,0.7602,0.4992,0.7103100000000001,"Hofstra University, Hempstead, NY",Elite,7,66,75,1052604456.551,1323574305.194,40.71690825,-73.60002245039347
191968,ithaca college,Ithaca,NY,Not applicable,0.6251,0.5611999999999999,0.5132,0.5675399999999999,"Ithaca College, Ithaca, NY",Strong,6,153,75,472591752.237,764861653.664,42.41970354999999,-76.49833484728887
192110,the juilliard school,New York,NY,Not applicable,0.266,0.4160999999999999,0.575,0.41968,"The Juilliard School, New York, NY",Vulnerable,2,588,75,1572716706.269,1622186942.691,40.7738393,-73.9831016
192448,long island university,Brookville,NY,Not applicable,0.6584,0.8884000000000001,0.5108,0.64527,"Long Island University, Brookville, NY",Elite,7,95,75,554577611.264,1120967686.504,40.820249,-73.59671333637571
192712,manhattan school of music,New York,NY,Not applicable,0.3001,0.427,0.5152,0.41156,"Manhattan School of Music, New York, NY",Vulnerable,2,629,75,37562615.387,102012677.225,40.8125642,-73.96129536937597
193654,the new school,New York,NY,Not applicable,0.8034,0.7353000000000001,0.4868,0.66306,"The New School, New York, NY",Elite,7,86,75,515441814.265,598661608.305,40.73547915,-73.9970708835668
193900,new york university,New York,NY,Not applicable,0.9987,0.9987,0.486,0.7934699999999999,"New York University, New York, NY",Elite,7,16,75,6034706438.394,9551573965.293,40.7292053,-73.99501481290962
194091,new york institute of technology,Old Westbury,NY,Not applicable,0.5913,0.5867,0.4936,0.55127,"New York Institute of Technology, Old Westbury, NY",Strong,6,164,75,91086998.448,333619944.249,40.80795904999999,-73.60628896763087
194116,new york school of interior design,New York,NY,Not applicable,0.2502,0.4032,0.5179,0.38793,"New York School of Interior Design, New York, NY",Critical,0,742,75,24126324.141,63509958.531,40.76854419999999,-73.96247825598766
194310,pace university,New York,NY,Not applicable,0.9468,0.8320000000000001,0.486,0.7394,"Pace University, New York, NY",Elite,7,48,75,289332378.422,659036258.969,40.7111164,-74.00480443918846
194824,rensselaer polytechnic institute,Troy,NY,Not applicable,0.8812000000000001,0.6837000000000001,0.4964,0.6877,"Rensselaer Polytechnic Institute, Troy, NY",Elite,7,78,75,1069422942.619,1183465472.482,42.7298969,-73.67966781998861
195003,rochester institute of technology,Rochester,NY,Not applicable,0.9987,0.7618,0.5,0.7517400000000001,"Rochester Institute of Technology, Rochester, NY",Elite,7,40,75,1660114774.307,2559570796.358,43.0826701,-77.67293215211362
195030,university of rochester,Rochester,NY,Not applicable,0.8784000000000001,0.8342,0.4892,0.7137699999999999,"University of Rochester, Rochester, NY",Elite,7,63,75,3421576727.583,4991061948.555,43.129864,-77.62878399245412
195128,russell sage college,Troy,NY,Not applicable,0.3068,0.4553999999999999,0.5008,0.41415,"Russell Sage College, Troy, NY",Vulnerable,2,616,75,53622190.488,92095318.135,42.7280214,-73.6935695
195526,skidmore college,Saratoga Springs,NY,Not applicable,0.5765,0.4565999999999999,0.5108,0.52624,"Skidmore College, Saratoga Springs, NY",Strong,6,202,75,534393004.307,987559691.959,43.09871785354964,-73.78422856497147
197045,utica university,Utica,NY,Not applicable,0.4353,0.5339,0.4813,0.47341,"Utica University, Utica, NY",Secure,4,336,75,38580764.922,11402267.915,43.09724785,-75.27048436278756
197133,vassar college,Poughkeepsie,NY,Not applicable,0.5442,0.4614,0.5191,0.51761,"Vassar College, Poughkeepsie, NY",Healthy,5,227,75,1440949194.175,1723553488.276,41.686786,-73.8956971
197221,webb institute,Glen Cove,NY,Not applicable,0.2486,0.3867,0.5303,0.38896,"Webb Institute, Glen Cove, NY",Critical,0,739,75,21167356.575,91784847.996,40.8844868,-73.64476966947441
198516,elon university,Elon,NC,Not applicable,0.994,0.616,0.502,0.72153,"Elon University, Elon, NC",Elite,7,58,35,388516877.838,1051150181.879,36.1063398,-79.50273682932499
199607,salem college,Winston-Salem,NC,Not applicable,0.2932,0.389,0.539,0.41073,"Salem College, Winston-Salem, NC",Vulnerable,2,631,35,59004245.141,99430416.148,36.0861216,-80.23981471121351
201061,art academy of cincinnati,Cincinnati,OH,Not applicable,0.2696,0.379,0.4836,0.37712,"Art Academy of Cincinnati, Cincinnati, OH",Critical,0,779,46,2128607.502,7043626.059,39.10884489999999,-84.51386678960034
201645,case western reserve university,Cleveland,OH,Not applicable,0.91,0.8146,0.504,0.72842,"Case Western Reserve University, Cleveland, OH",Elite,7,54,46,2328022340.607,3510779608.526,41.50138695,-81.60070216600491
202046,cleveland institute of art,Cleveland,OH,Not applicable,0.2779,0.397,0.4996,0.3904399999999999,"Cleveland Institute of Art, Cleveland, OH",At-Risk,1,733,46,35580116.77,104324926.416,41.5105999,-81.60241351457773
202073,cleveland institute of music,Cleveland,OH,Not applicable,0.2476,0.3924,0.5104,0.38173,"Cleveland Institute of Music, Cleveland, OH",Critical,0,760,46,74075651.385,114820922.278,41.51246555,-81.6088220252853
202170,columbus college of art & design,Columbus,OH,Not applicable,0.2915,0.4036,0.4546,0.3791899999999999,"Columbus College of Art & Design, Columbus, OH",Critical,0,772,46,27872818.458,82031832.622,39.9650847,-82.99043195655817
202523,denison university,Granville,OH,Not applicable,0.5271,0.4503,0.6509999999999999,0.56135,"Denison University, Granville, OH",Strong,6,156,46,1358437901.167,1630271528.587,40.07300505,-82.52248588003852
202806,franklin university,Columbus,OH,Not applicable,0.2457,0.6514,0.4952,0.4266299999999999,"Franklin University, Columbus, OH",Vulnerable,2,557,46,13488264.2,104676676.187,39.95764844999999,-82.99093046593417
203580,lake erie college,Painesville,OH,Not applicable,0.3103,0.3982,0.4825,0.39679,"Lake Erie College, Painesville, OH",At-Risk,1,705,46,9133171.046,31673729.865,41.7169934,-81.25184131797042
203845,marietta college,Marietta,OH,Not applicable,0.3560999999999999,0.4129,0.4964,0.42361,"Marietta College, Marietta, OH",Vulnerable,2,573,46,111279865.266,130171606.859,39.41609505,-81.4484225136152
204486,university of northwestern ohio,Lima,OH,Not applicable,0.5832,0.4507,0.5219,0.53219,"University of Northwestern Ohio, Lima, OH",Strong,6,192,46,0.0,104121602.804,40.7617103,-84.16055032215593
205203,university of rio grande,Rio Grande,OH,Not applicable,0.2847,0.4222999999999999,0.2135999999999999,0.28373,"University of Rio Grande, Rio Grande, OH",Critical,0,841,46,23657962.883,37150119.624,38.8788275,-82.376029230075
206048,tiffin university,Tiffin,OH,Not applicable,0.4424,0.4478999999999999,0.49,0.46255,"Tiffin University, Tiffin, OH",Secure,4,378,46,25143645.379,76333447.968,41.11911195,-83.18558345227916
209056,lewis & clark college,Portland,OR,Not applicable,0.5843,0.4892,0.4972,0.53043,"Lewis & Clark College, Portland, OR",Strong,6,195,11,340541827.839,404052901.574,45.44850495,-122.6700383929096
209922,reed college,Portland,OR,Not applicable,0.4507,0.4196,0.5263,0.47475,"Reed College, Portland, OR",Secure,4,331,11,889774231.258,1027515868.041,45.48149925,-122.6310136075346
211440,carnegie mellon university,Pittsburgh,PA,Not applicable,0.9097,0.9458,0.5128,0.75803,"Carnegie Mellon University, Pittsburgh, PA",Elite,7,37,51,3599248323.453,6888349653.23,40.4441897,-79.94271918393466
211468,cedar crest college,Allentown,PA,Not applicable,0.2673,0.4349,0.4984,0.3933,"Cedar Crest College, Allentown, PA",At-Risk,1,721,51,45490410.894,101640838.105,40.5870414,-75.5196287
211981,delaware valley university,Doylestown,PA,Not applicable,0.4286,0.4404,0.488,0.45474,"Delaware Valley University, Doylestown, PA",Secure,4,409,51,41054108.162,67760829.733,40.29314845,-75.15994121447233
212054,drexel university,Philadelphia,PA,Not applicable,0.9866,0.9543,0.4871999999999999,0.78024,"Drexel University, Philadelphia, PA",Elite,7,24,51,1069472319.374,1421467917.429,39.9569305,-75.18992654517834
213376,lackawanna college,Scranton,PA,Not applicable,0.3797999999999999,0.4645,0.498,0.44404,"Lackawanna College, Scranton, PA",Stable,3,459,51,11850306.892,72375630.993,41.41176365,-75.65867565883656
214582,pennsylvania institute of technology,Media,PA,Not applicable,0.2588,0.4079,0.4717,0.37381,"Pennsylvania Institute of Technology, Media, PA",Critical,0,795,51,3231363.223,23815956.06,39.9084449,-75.3888041
214883,peirce college,Philadelphia,PA,Not applicable,0.2355,0.4044,0.4852,0.3692,"Peirce College, Philadelphia, PA",Critical,0,810,51,3036877.12,27617138.034,39.9454895,-75.16648247045221
215442,point park university,Pittsburgh,PA,Not applicable,0.4175999999999999,0.5115999999999999,0.5219,0.47813,"Point Park University, Pittsburgh, PA",Secure,4,321,51,56127965.633,140937926.618,40.4386483,-80.0017698160382
215655,robert morris university,Moon Township,PA,Not applicable,0.4757,0.5004,0.4847999999999999,0.48428,"Robert Morris University, Moon Township, PA",Healthy,5,299,51,59246999.019,94715079.173,40.52155855,-80.21157831862749
216524,ursinus college,Collegeville,PA,Not applicable,0.4036,0.4164,0.4996,0.44459,"Ursinus College, Collegeville, PA",Stable,3,458,51,159275253.277,252553226.718,40.1917705,-75.4568484
217059,york college of pennsylvania,York,PA,Not applicable,0.5505,0.4871999999999999,0.5128,0.52276,"York College of Pennsylvania, York, PA",Healthy,5,214,51,193108158.109,505015113.34,39.9474471,-76.72679844421862
217156,brown university,Providence,RI,Not applicable,0.948,0.7787999999999999,0.5291,0.74651,"Brown University, Providence, RI",Elite,7,43,8,7887522073.543,9289543116.548,41.8186395,-71.4088008716793
217165,bryant university,Smithfield,RI,Not applicable,0.6925,0.5211,0.4988,0.58072,"Bryant University, Smithfield, RI",Strong,6,138,8,253643851.285,498412631.401,41.92209145,-71.53715173504338
217305,new england institute of technology,East Greenwich,RI,Not applicable,0.4689,0.4629999999999999,0.5279,0.49134,"New England Institute of Technology, East Greenwich, RI",Healthy,5,279,8,289046941.425,370980766.355,41.6602712,-71.50135499179412
217493,rhode island school of design,Providence,RI,Not applicable,0.4976,0.4745,0.4968,0.49266,"Rhode Island School of Design, Providence, RI",Healthy,5,277,8,469766689.809,551235772.221,41.82710375,-71.40639007145332
217518,roger williams university,Bristol,RI,Not applicable,0.7273999999999999,0.5303,0.488,0.59219,"Roger Williams University, Bristol, RI",Strong,6,129,8,79243240.161,180625510.738,41.65046814999999,-71.26023298522472
217907,coker university,Hartsville,SC,Not applicable,0.3099,0.4094,0.5044,0.40764,"Coker University, Hartsville, SC",At-Risk,1,648,19,33074416.85,66432572.563,34.3777406,-80.0674304
217961,converse university,Spartanburg,SC,Not applicable,0.3749,0.4149,0.5104,0.43713,"Converse University, Spartanburg, SC",Stable,3,499,19,94409611.438,144512194.348,34.95798605,-81.91913306668786
219949,cumberland university,Lebanon,TN,Not applicable,0.5906,0.4896,0.5152,0.54024,"Cumberland University, Lebanon, TN",Strong,6,181,28,30637378.186,98681894.721,36.20463525,-86.29971370104121
220631,lincoln memorial university,Harrogate,TN,Not applicable,0.4677,0.5579999999999999,0.51,0.5026700000000001,"Lincoln Memorial University, Harrogate, TN",Healthy,5,259,28,61927129.819,483706622.464,36.5718381,-83.66162404836976
221999,vanderbilt university,Nashville,TN,Not applicable,0.9471,0.9526,0.5279,0.78039,"Vanderbilt University, Nashville, TN",Elite,7,23,28,11974481534.48,11510280663.76,36.14380105,-86.80281889095295
227757,rice university,Houston,TX,Not applicable,0.9858,0.855,0.5323,0.77813,"Rice University, Houston, TX",Elite,7,26,31,9613198327.988,9606914980.656,29.71679145,-95.40478113393792
230807,westminster university,Salt Lake City,UT,Not applicable,0.3145,0.4160999999999999,0.5152,0.41514,"Westminster University, Salt Lake City, UT",Vulnerable,2,612,2,81089996.67,130438628.493,40.7312521,-111.855563602987
230852,champlain college,Burlington,VT,Not applicable,0.4004999999999999,0.5714,0.4876,0.46951,"Champlain College, Burlington, VT",Secure,4,352,7,29060956.129,118068387.687,44.4739064,-73.20327154657234
230959,middlebury college,Middlebury,VT,Not applicable,0.4673,0.4781,0.5171,0.48939,"Middlebury College, Middlebury, VT",Healthy,5,283,7,1782253826.174,1739989900.979,44.00366955,-73.17295278964315
230995,norwich university,Northfield,VT,Not applicable,0.3256,0.5147999999999999,0.5675,0.46023,"Norwich University, Northfield, VT",Secure,4,387,7,303012700.72,513719792.858,44.13917905,-72.66126954642372
232308,hollins university,Roanoke,VA,Not applicable,0.3707,0.4039999999999999,0.5968,0.46786,"Hollins University, Roanoke, VA",Secure,4,362,22,366494932.481,444157334.031,37.3573684,-79.94365952263512
234207,washington and lee university,Lexington,VA,Not applicable,0.5588000000000001,0.455,0.5462,0.53302,"Washington and Lee University, Lexington, VA",Strong,6,189,22,1687001824.392,2427013821.1,37.7869705,-79.4413852
235024,cornish college of the arts,Seattle,WA,Not applicable,0.427,0.3821,0.5036,0.44869,"Cornish College of the Arts, Seattle, WA",Stable,3,436,12,13273055.254,61262452.36,47.61680045,-122.33586595
235422,heritage university,Toppenish,WA,Not applicable,0.3224,0.4059,0.5474,0.42915,"Heritage University, Toppenish, WA",Vulnerable,2,540,12,39637676.092,79931830.755,46.37415319999999,-120.3942754804292
237057,whitman college,Walla Walla,WA,Not applicable,0.5355,0.4257999999999999,0.5374,0.51434,"Whitman College, Walla Walla, WA",Healthy,5,235,12,929708256.441,1148336149.192,46.0705665,-118.3303177501461
237312,university of charleston,Charleston,WV,Not applicable,0.2796,0.5509000000000001,0.5132,0.42732,"University of Charleston, Charleston, WV",Vulnerable,2,554,6,45525287.471,159739875.781,38.33293915,-81.61688525414507
